{"version": 0.6, "generator": "Overpass API 0.7.57 93a4d346", "osm3s": {"timestamp_osm_base": "2022-01-07T15:05:14Z", "copyright": "The data included in this document is from www.openstreetmap.org. The data is made available under ODbL."}, "elements": [{"type": "node", "id": 150597415, "lat": 51.0940904, "lon": 16.9784472, "tags": {"bus": "yes", "name": "FAT", "public_transport": "stop_position", "ref": "11712"}}, {"type": "node", "id": 151334595, "lat": 51.0951041, "lon": 16.979361, "tags": {"bus": "yes", "name": "FAT", "public_transport": "stop_position", "ref": "11707"}}, {"type": "node", "id": 158719894, "lat": 51.1085576, "lon": 17.0500634, "tags": {"bus": "yes", "name": "Urz\u0105d Wojew\u00f3dzki (Impart)", "old_name": "Urz\u0105d Wojew\u00f3dzki", "public_transport": "stop_position", "ref": "20301"}}, {"type": "node", "id": 158719917, "lat": 51.1120551, "lon": 17.0625567, "tags": {"bus": "yes", "name": "Plac Grunwaldzki", "official_name": "pl. Grunwaldzki", "public_transport": "stop_position", "ref": "20921"}}, {"type": "node", "id": 159986704, "lat": 51.0796579, "lon": 16.9574, "tags": {"bus": "yes", "name": "Jordanowska", "public_transport": "stop_position", "ref": "17126"}}, {"type": "node", "id": 163019353, "lat": 51.1131612, "lon": 17.0078288, "tags": {"bus": "yes", "name": "Plac Strzegomski (Muzeum Wsp\u00f3\u0142czesne)", "official_name": "pl. Strzegomski (Muzeum Wsp\u00f3\u0142czesne)", "public_transport": "stop_position", "ref": "10505"}}, {"type": "node", "id": 163081450, "lat": 51.1091274, "lon": 16.9687074, "tags": {"bus": "yes", "name": "Szkocka", "public_transport": "stop_position", "ref": "12149"}}, {"type": "node", "id": 165109880, "lat": 51.113239, "lon": 17.0499549, "tags": {"bus": "yes", "name": "Katedra", "public_transport": "stop_position", "ref": "20932"}}, {"type": "node", "id": 167074602, "lat": 51.1175052, "lon": 17.0408338, "tags": {"bus": "yes", "name": "Plac Bema", "official_name": "pl. Bema", "public_transport": "stop_position", "ref": "20906"}}, {"type": "node", "id": 171222241, "lat": 51.1167162, "lon": 17.0238078, "tags": {"bus": "yes", "name": "Dmowskiego", "public_transport": "stop_position", "ref": "10522"}}, {"type": "node", "id": 178983622, "lat": 51.0972046, "lon": 17.0041107, "tags": {"bus": "yes", "name": "Grochowa", "public_transport": "stop_position", "ref": "11514"}}, {"type": "node", "id": 184191112, "lat": 51.0992437, "lon": 17.0345122, "tags": {"bus": "yes", "name": "Dworzec G\u0142\u00f3wny", "public_transport": "stop_position", "ref": "20362"}}, {"type": "node", "id": 185460609, "lat": 51.1039523, "lon": 17.0410579, "tags": {"bus": "yes", "name": "Skwer Krasi\u0144skiego", "public_transport": "stop_position", "ref": "20337"}}, {"type": "node", "id": 185491126, "lat": 51.1124517, "lon": 16.988819, "tags": {"bus": "yes", "name": "Dolno\u015bl\u0105ska Szko\u0142a Wy\u017csza", "public_transport": "stop_position", "ref": "12104"}}, {"type": "node", "id": 185627771, "lat": 51.1363888, "lon": 17.0703794, "tags": {"bus": "yes", "name": "Kromera (Czajkowskiego)", "public_transport": "stop_position", "ref": "24145"}}, {"type": "node", "id": 185627799, "lat": 51.1392958, "lon": 17.0809826, "tags": {"bus": "yes", "name": "Br\u00fccknera", "public_transport": "stop_position", "ref": "24105"}}, {"type": "node", "id": 185627819, "lat": 51.1394573, "lon": 17.081165, "tags": {"bus": "yes", "name": "Br\u00fccknera", "public_transport": "stop_position", "ref": "24106"}}, {"type": "node", "id": 185628176, "lat": 51.1420781, "lon": 17.0927606, "tags": {"bus": "yes", "name": "Centrum Handlowe Korona", "official_name": "C.H. Korona", "public_transport": "stop_position", "ref": "24110"}}, {"type": "node", "id": 215466496, "lat": 51.1042716, "lon": 17.0831963, "tags": {"bus": "yes", "name": "Tramwajowa", "public_transport": "stop_position", "ref": "24503"}}, {"type": "node", "id": 236282141, "lat": 51.0561408, "lon": 16.9704631, "tags": {"bus": "yes", "name": "Po\u0142abian", "public_transport": "stop_position", "ref": "16721"}}, {"type": "node", "id": 236282179, "lat": 51.0617451, "lon": 16.9758888, "tags": {"bus": "yes", "name": "Marcepanowa", "public_transport": "stop_position", "ref": "16713"}}, {"type": "node", "id": 236282185, "lat": 51.0623767, "lon": 16.9763212, "tags": {"bus": "yes", "name": "Marcepanowa", "public_transport": "stop_position", "ref": "16706"}}, {"type": "node", "id": 236282193, "lat": 51.0631494, "lon": 16.9768516, "tags": {"bus": "yes", "name": "Wa\u0142brzyska", "public_transport": "stop_position", "ref": "16717"}}, {"type": "node", "id": 241778111, "lat": 51.0850289, "lon": 17.0480902, "tags": {"bus": "yes", "name": "Kamienna", "public_transport": "stop_position", "ref": "21125"}}, {"type": "node", "id": 242624863, "lat": 51.1297155, "lon": 16.9851547, "tags": {"bus": "yes", "name": "Wejherowska", "public_transport": "stop_position", "ref": "12315"}}, {"type": "node", "id": 242625014, "lat": 51.1362757, "lon": 16.9669147, "tags": {"bus": "yes", "name": "Modra", "public_transport": "stop_position", "ref": "12704"}}, {"type": "node", "id": 242625049, "lat": 51.1436788, "lon": 16.9532579, "tags": {"bus": "yes", "name": "Dworska", "public_transport": "stop_position", "ref": "18536"}}, {"type": "node", "id": 243669325, "lat": 51.155524, "lon": 17.1291497, "tags": {"bus": "yes", "name": "Kr\u00f3lewska", "public_transport": "stop_position", "ref": "29522"}}, {"type": "node", "id": 244050318, "lat": 51.1381879, "lon": 16.9428118, "tags": {"bus": "yes", "name": "Stadion Wroc\u0142aw (Lotnicza)", "public_transport": "stop_position", "ref": "18112"}}, {"type": "node", "id": 244410110, "lat": 51.1401196, "lon": 17.0630939, "tags": {"bus": "yes", "name": "Przybyszewskiego", "public_transport": "stop_position", "ref": "23709"}}, {"type": "node", "id": 244410188, "lat": 51.1391674, "lon": 17.0652109, "tags": {"bus": "yes", "name": "Czajkowskiego", "public_transport": "stop_position", "ref": "23715"}}, {"type": "node", "id": 244444768, "lat": 51.1363818, "lon": 17.0365124, "tags": {"bus": "yes", "name": "Broniewskiego", "public_transport": "stop_position", "ref": "23121"}}, {"type": "node", "id": 244444809, "lat": 51.1375145, "lon": 16.993765, "tags": {"bus": "yes", "name": "Osobowice", "public_transport": "stop_position", "ref": "23302"}}, {"type": "node", "id": 244444810, "lat": 51.1376664, "lon": 16.9935036, "tags": {"bus": "yes", "name": "Osobowice", "public_transport": "stop_position", "ref": "23301"}}, {"type": "node", "id": 245958205, "lat": 51.1147151, "lon": 17.1280815, "tags": {"bus": "yes", "name": "Swojczyce", "public_transport": "stop_position", "ref": "24708"}}, {"type": "node", "id": 245958235, "lat": 51.1134845, "lon": 17.120976, "tags": {"bus": "yes", "name": "Magellana", "public_transport": "stop_position", "ref": "24706"}}, {"type": "node", "id": 245958328, "lat": 51.1512362, "lon": 17.1232385, "tags": {"bus": "yes", "disused:public_transport": "stop_position", "name": "Siedzik\u00f3wny", "official_name": "\"Siedzik\u00f3wny\"", "ref": "29122"}}, {"type": "node", "id": 246689930, "lat": 51.0715944, "lon": 17.032471, "tags": {"bus": "yes", "name": "Przystankowa", "public_transport": "stop_position", "ref": "26302"}}, {"type": "node", "id": 246690030, "lat": 51.1378644, "lon": 16.89756, "tags": {"bus": "yes", "name": "Ma\u0142opolska (O\u015brodek dla niewidomych)", "public_transport": "stop_position", "ref": "18147"}}, {"type": "node", "id": 246808429, "lat": 51.12098, "lon": 16.8768532, "tags": {"bus": "yes", "name": "Jasi\u0144skiej", "public_transport": "stop_position", "ref": "17713"}}, {"type": "node", "id": 247164628, "lat": 51.1462313, "lon": 17.1306243, "tags": {"bus": "yes", "name": "Poleska", "public_transport": "stop_position", "ref": "29311"}}, {"type": "node", "id": 247164630, "lat": 51.1464527, "lon": 17.1289584, "tags": {"bus": "yes", "name": "Poleska", "public_transport": "stop_position", "ref": "29312"}}, {"type": "node", "id": 247164641, "lat": 51.1469344, "lon": 17.113964, "tags": {"bicycle": "yes", "bus": "yes", "note:access": "Nie dotyczy: 1.komunikacji miejskiej; 2.rower\u00f3w i w\u00f3zk\u00f3w rowerowych; 3.zaopatrzenia w godzinach 5-9; 4.dojazdu na teren posesji przy Krzywoustego 302", "traffic_sign": "PL:B-1", "vehicle": "private"}}, {"type": "node", "id": 247164649, "lat": 51.1453618, "lon": 17.1078744, "tags": {"bus": "yes", "name": "Zielna", "public_transport": "stop_position", "ref": "29102"}}, {"type": "node", "id": 247168285, "lat": 51.1299599, "lon": 17.0971021, "tags": {"bus": "yes", "name": "Bociania", "public_transport": "stop_position", "ref": "24117"}}, {"type": "node", "id": 247168293, "lat": 51.1321098, "lon": 17.0890895, "tags": {"bus": "yes", "name": "G\u0119sia", "public_transport": "stop_position", "ref": "24115"}}, {"type": "node", "id": 247170135, "lat": 51.122372, "lon": 16.9623478, "tags": {"bus": "yes", "name": "Hynka", "public_transport": "stop_position", "ref": "12517"}}, {"type": "node", "id": 247170142, "lat": 51.1226157, "lon": 16.9728329, "tags": {"bus": "yes", "name": "Orli\u0144skiego", "public_transport": "stop_position", "ref": "12514"}}, {"type": "node", "id": 247170147, "lat": 51.1233336, "lon": 16.9588902, "tags": {"bus": "yes", "name": "Bystrzycka", "public_transport": "stop_position", "ref": "12542"}}, {"type": "node", "id": 248215252, "lat": 51.0822197, "lon": 17.0026574}, {"type": "node", "id": 248844129, "lat": 51.1086778, "lon": 17.1399295, "tags": {"bus": "yes", "name": "Niedzia\u0142kowskiego", "public_transport": "stop_position", "ref": "24709"}}, {"type": "node", "id": 249324510, "lat": 51.155718, "lon": 16.8909248, "tags": {"bus": "yes", "name": "Stab\u0142owice", "public_transport": "stop_position", "ref": "18127"}}, {"type": "node", "id": 249324530, "lat": 51.1327617, "lon": 16.973815, "tags": {"bus": "yes", "name": "Kolista", "public_transport": "stop_position", "ref": "12711"}}, {"type": "node", "id": 250194180, "lat": 51.1381782, "lon": 17.029335, "tags": {"bus": "yes", "name": "Ba\u0142tycka", "public_transport": "stop_position", "ref": "23143"}}, {"type": "node", "id": 250194195, "lat": 51.148176, "lon": 17.0205187, "tags": {"bus": "yes", "name": "Paprotna", "public_transport": "stop_position", "ref": "23149"}}, {"type": "node", "id": 250194251, "lat": 51.1932695, "lon": 16.9780625, "tags": {"bus": "yes", "name": "Zaj\u0105czkowska", "public_transport": "stop_position", "ref": "23513"}}, {"type": "node", "id": 250194266, "lat": 51.1691487, "lon": 16.9970829, "tags": {"bus": "yes", "name": "Kominiarska", "public_transport": "stop_position", "ref": "23507"}}, {"type": "node", "id": 265643939, "lat": 51.1216552, "lon": 16.9932035, "tags": {"bus": "yes", "name": "Nied\u017awiedzia", "public_transport": "stop_position", "ref": "12301"}}, {"type": "node", "id": 265643944, "lat": 51.1161076, "lon": 17.000581, "tags": {"bus": "yes", "bus_stop": "pole", "name": "Zachodnia (Stacja kolejowa)", "public_transport": "stop_position", "ref": "10508"}}, {"type": "node", "id": 265643954, "lat": 51.1175446, "lon": 17.0035868, "tags": {"bus": "yes", "name": "G\u0142ogowska", "public_transport": "stop_position", "ref": "10510"}}, {"type": "node", "id": 265643967, "lat": 51.1211099, "lon": 17.0121462, "tags": {"bus": "yes", "bus_stop": "pole", "name": "Pozna\u0144ska", "public_transport": "stop_position", "ref": "10516"}}, {"type": "node", "id": 265643986, "lat": 51.1128401, "lon": 17.007236, "tags": {"bus": "yes", "bus_stop": "pole", "name": "Plac Strzegomski (Muzeum Wsp\u00f3\u0142czesne)", "official_name": "pl. Strzegomski (Muzeum Wsp\u00f3\u0142czesne)", "public_transport": "stop_position", "ref": "10506"}}, {"type": "node", "id": 265643998, "lat": 51.1142439, "lon": 17.0063843, "tags": {"bus": "yes", "highway": "bus_stop", "name": "Plac Strzegomski (Muzeum Wsp\u00f3\u0142czesne)", "network": "Wroc\u0142aw", "official_name": "pl. Strzegomski (Muzeum Wsp\u00f3\u0142czesne)", "operator": "ZDiUM Wroc\u0142aw", "public_transport": "platform", "ref": "10526"}}, {"type": "node", "id": 265644028, "lat": 51.1126834, "lon": 17.0122411, "tags": {"bus": "yes", "name": "M\u0142odych Technik\u00f3w", "public_transport": "stop_position", "ref": "10504"}}, {"type": "node", "id": 265644115, "lat": 51.119979, "lon": 17.0101162, "tags": {"bus": "yes", "name": "Litomska (ZUS)", "public_transport": "stop_position", "ref": "10527"}}, {"type": "node", "id": 265644204, "lat": 51.1190385, "lon": 17.0152003, "tags": {"bus": "yes", "name": "D\u0142uga", "public_transport": "stop_position", "ref": "10525"}}, {"type": "node", "id": 265644207, "lat": 51.1189188, "lon": 17.0149781, "tags": {"bus": "yes", "name": "D\u0142uga", "public_transport": "stop_position", "ref": "10524"}}, {"type": "node", "id": 265644218, "lat": 51.1153971, "lon": 17.015096, "tags": {"bus": "yes", "name": "Inowroc\u0142awska", "public_transport": "stop_position", "ref": "10511"}}, {"type": "node", "id": 265644224, "lat": 51.1156683, "lon": 17.0140494, "tags": {"bus": "yes", "name": "Inowroc\u0142awska", "public_transport": "stop_position", "ref": "10512"}}, {"type": "node", "id": 265668277, "lat": 51.112946, "lon": 17.0125585, "tags": {"bus": "yes", "name": "M\u0142odych Technik\u00f3w", "public_transport": "stop_position", "ref": "10503"}}, {"type": "node", "id": 265740491, "lat": 51.0895904, "lon": 17.027329, "tags": {"bus": "yes", "name": "Uniwersytet Ekonomiczny", "public_transport": "stop_position", "ref": "11342"}}, {"type": "node", "id": 266010542, "lat": 51.1242816, "lon": 16.9967567, "tags": {"bus": "yes", "description": "przystanek awaryjny", "highway": "bus_stop", "name": "Jelenia", "network": "Wroc\u0142aw", "operator": "ZDiUM Wroc\u0142aw", "public_transport": "platform", "ref": "12309"}}, {"type": "node", "id": 266010547, "lat": 51.1235776, "lon": 16.9960225, "tags": {"bus": "yes", "departures_board": "no", "highway": "bus_stop", "name": "Jelenia", "network": "Wroc\u0142aw", "operator": "ZDiUM Wroc\u0142aw", "public_transport": "platform", "ref": "12310"}}, {"type": "node", "id": 266010593, "lat": 51.1245946, "lon": 17.0104201, "tags": {"bus": "yes", "name": "D\u0142uga (Politechnika)", "public_transport": "stop_position", "ref": "10517"}}, {"type": "node", "id": 266010595, "lat": 51.1238783, "lon": 17.0107051, "tags": {"bus": "yes", "name": "D\u0142uga (Politechnika)", "public_transport": "stop_position", "ref": "10518"}}, {"type": "node", "id": 266010600, "lat": 51.1221434, "lon": 17.0122507, "tags": {"bus": "yes", "name": "Pozna\u0144ska", "public_transport": "stop_position", "ref": "10423"}}, {"type": "node", "id": 267273388, "lat": 51.1133931, "lon": 17.0180961, "tags": {"bus": "yes", "name": "Plac Solidarno\u015bci", "official_name": "pl. Solidarno\u015bci", "public_transport": "stop_position", "ref": "10538"}}, {"type": "node", "id": 267273389, "lat": 51.1137439, "lon": 17.0177612, "tags": {"bus": "yes", "name": "Plac Solidarno\u015bci", "official_name": "pl. Solidarno\u015bci", "public_transport": "stop_position", "ref": "10536"}}, {"type": "node", "id": 267273393, "lat": 51.1135731, "lon": 17.0177269, "tags": {"bus": "yes", "name": "Plac Solidarno\u015bci", "official_name": "pl. Solidarno\u015bci", "public_transport": "stop_position", "ref": "10532"}}, {"type": "node", "id": 268471649, "lat": 51.1114608, "lon": 16.9526319, "tags": {"bus": "yes", "name": "ROD Tysi\u0105clecia", "public_transport": "stop_position", "ref": "12132"}}, {"type": "node", "id": 268480780, "lat": 51.0798876, "lon": 17.0625029, "tags": {"bus": "yes", "name": "Klimasa", "public_transport": "stop_position", "ref": "21149"}}, {"type": "node", "id": 268543258, "lat": 51.0732831, "lon": 17.0531763, "tags": {"bus": "yes", "name": "Bardzka (Cmentarz)", "public_transport": "stop_position", "ref": "21136"}}, {"type": "node", "id": 271918480, "lat": 51.138756, "lon": 17.0603837, "tags": {"bus": "yes", "name": "Plac Dani\u0142owskiego", "official_name": "pl. Dani\u0142owskiego", "public_transport": "stop_position", "ref": "23733"}}, {"type": "node", "id": 273460534, "lat": 51.0699016, "lon": 17.0322845, "tags": {"bus": "yes", "name": "Przystankowa", "public_transport": "stop_position", "ref": "26301"}}, {"type": "node", "id": 273460543, "lat": 51.0517001, "lon": 17.0188702, "tags": {"bus": "yes", "name": "Kutrzeby", "public_transport": "stop_position", "ref": "26343"}}, {"type": "node", "id": 278126992, "lat": 51.0691998, "lon": 16.9967263, "tags": {"bus": "yes", "name": "Osiedle Przyja\u017ani", "official_name": "Os. Przyja\u017ani", "public_transport": "stop_position", "ref": "16503"}}, {"type": "node", "id": 297067964, "lat": 51.0857505, "lon": 17.0353214, "tags": {"bus": "yes", "name": "\u015aliczna", "public_transport": "stop_position", "ref": "21106"}}, {"type": "node", "id": 297068013, "lat": 51.0849874, "lon": 17.035044, "tags": {"bus": "yes", "name": "\u015aliczna", "public_transport": "stop_position", "ref": "21105"}}, {"type": "node", "id": 297318256, "lat": 51.0863005, "lon": 17.0450162, "tags": {"bus": "yes", "name": "Widna", "old_name": "Kamienna (Widna)", "public_transport": "stop_position", "ref": "21143"}}, {"type": "node", "id": 297561889, "lat": 51.1037279, "lon": 17.0383786, "tags": {"bus": "yes", "name": "Wzg\u00f3rze Partyzant\u00f3w", "old_name": "Eureka", "public_transport": "stop_position", "ref": "10333"}}, {"type": "node", "id": 297561983, "lat": 51.0868646, "lon": 17.012843, "tags": {"bus": "yes", "name": "Hallera", "public_transport": "stop_position", "ref": "11304"}}, {"type": "node", "id": 297779647, "lat": 51.1143697, "lon": 16.9846381, "tags": {"bus": "yes", "disused:public_transport": "stop_position", "name": "Strzegomska 56", "note": "Przystanek czasowo nieczynny ze wzgl\u0119du zmiany w organizacji ruchu w rejonie ul. Robotniczej w zwi\u0105zku na budow\u0105 TAT na Nowy Dw\u00f3r", "ref": "12100"}}, {"type": "node", "id": 297779651, "lat": 51.1011783, "lon": 17.0402399, "tags": {"bus": "yes", "name": "Dworzec G\u0142\u00f3wny (Dworcowa)", "old_name": "Dworcowa", "public_transport": "stop_position", "ref": "20334"}}, {"type": "node", "id": 297779658, "lat": 51.0943617, "lon": 17.0322672, "tags": {"bus": "yes", "name": "Dyrekcyjna", "public_transport": "stop_position", "ref": "21101"}}, {"type": "node", "id": 297779669, "lat": 51.0858663, "lon": 17.0464164, "tags": {"bus": "yes", "name": "Kamienna", "public_transport": "stop_position", "ref": "21144"}}, {"type": "node", "id": 297986476, "lat": 51.0898224, "lon": 17.021498, "tags": {"bus": "yes", "name": "Drukarska", "public_transport": "stop_position", "ref": "11344"}}, {"type": "node", "id": 297986477, "lat": 51.083089, "lon": 17.0360168, "tags": {"bus": "yes", "name": "ROD Bajki", "public_transport": "stop_position", "ref": "21179"}}, {"type": "node", "id": 298543326, "lat": 51.0786148, "lon": 17.0341608, "tags": {"bus": "yes", "name": "Dzia\u0142kowa", "public_transport": "stop_position", "ref": "21108"}}, {"type": "node", "id": 298543330, "lat": 51.0839358, "lon": 17.0351994, "tags": {"bus": "yes", "name": "ROD Bajki", "public_transport": "stop_position", "ref": "21118"}}, {"type": "node", "id": 298543360, "lat": 51.0895813, "lon": 16.9998308, "tags": {"bus": "yes", "name": "Mielecka", "public_transport": "stop_position", "ref": "11554"}}, {"type": "node", "id": 298543361, "lat": 51.0876846, "lon": 17.0069193, "tags": {"bus": "yes", "name": "Gajowicka", "public_transport": "stop_position", "ref": "11540"}}, {"type": "node", "id": 298543363, "lat": 51.0861338, "lon": 17.0126032, "tags": {"bus": "yes", "name": "Hallera", "public_transport": "stop_position", "ref": "11351"}}, {"type": "node", "id": 298543364, "lat": 51.0824865, "lon": 17.0345087, "tags": {"bus": "yes", "name": "ROD Bajki", "public_transport": "stop_position", "ref": "21117"}}, {"type": "node", "id": 298543365, "lat": 51.0833411, "lon": 17.0340019, "tags": {"bus": "yes", "name": "ROD Bajki", "public_transport": "stop_position", "ref": "21178"}}, {"type": "node", "id": 298549019, "lat": 51.0836128, "lon": 17.0265556, "tags": {"bus": "yes", "name": "Wi\u015bniowa", "public_transport": "stop_position", "ref": "21175"}}, {"type": "node", "id": 298897105, "lat": 51.0748291, "lon": 17.006355, "tags": {"bus": "yes", "name": "Krzyki", "public_transport": "stop_position", "ref": "11313"}}, {"type": "node", "id": 298906626, "lat": 51.083274, "lon": 17.0393672, "tags": {"bus": "yes", "name": "Orzechowa", "public_transport": "stop_position", "ref": "21172"}}, {"type": "node", "id": 299389601, "lat": 51.0848373, "lon": 17.0190636, "tags": {"bus": "yes", "name": "Sudecka", "public_transport": "stop_position", "ref": "11361"}}, {"type": "node", "id": 299389607, "lat": 51.0830353, "lon": 17.041774, "tags": {"bus": "yes", "name": "Orzechowa", "public_transport": "stop_position", "ref": "21171"}}, {"type": "node", "id": 299564639, "lat": 51.0821279, "lon": 17.0494486, "tags": {"bus": "yes", "name": "Bardzka", "public_transport": "stop_position", "ref": "21173"}}, {"type": "node", "id": 299823019, "lat": 51.0834885, "lon": 17.0299662, "tags": {"bus": "yes", "name": "Spiska (O\u015brodek sportu)", "public_transport": "stop_position", "ref": "21176"}}, {"type": "node", "id": 299823038, "lat": 51.0855957, "lon": 17.0164788, "tags": {"bus": "yes", "name": "Sudecka", "public_transport": "stop_position", "ref": "11354"}}, {"type": "node", "id": 299823039, "lat": 51.1076956, "lon": 17.0209802, "tags": {"bus": "yes", "name": "Plac Orl\u0105t Lwowskich", "official_name": "pl. Orl\u0105t Lwowskich", "public_transport": "stop_position", "ref": "10531"}}, {"type": "node", "id": 300104944, "lat": 51.0831666, "lon": 17.0241172, "tags": {"bus": "yes", "name": "Wi\u015bniowa", "public_transport": "stop_position", "ref": "11373"}}, {"type": "node", "id": 300105145, "lat": 51.0832165, "lon": 17.0312206, "tags": {"bus": "yes", "name": "Spiska (O\u015brodek sportu)", "public_transport": "stop_position", "ref": "21177"}}, {"type": "node", "id": 300454715, "lat": 51.0831377, "lon": 17.0479734, "tags": {"bus": "yes", "name": "Bardzka", "public_transport": "stop_position", "ref": "21174"}}, {"type": "node", "id": 300454894, "lat": 51.0845492, "lon": 17.0256332, "tags": {"bus": "yes", "name": "Wi\u015bniowa", "public_transport": "stop_position", "ref": "11374"}}, {"type": "node", "id": 300454995, "lat": 51.0842327, "lon": 17.0236972, "tags": {"bus": "yes", "name": "Wi\u015bniowa", "public_transport": "stop_position", "ref": "11362"}}, {"type": "node", "id": 300665424, "lat": 51.0817798, "lon": 17.0230852, "tags": {"bus": "yes", "name": "Jaworowa", "public_transport": "stop_position", "ref": "11376"}}, {"type": "node", "id": 300980263, "lat": 51.1118692, "lon": 17.0000595, "tags": {"bus": "yes", "name": "\u015arubowa", "public_transport": "stop_position", "ref": "10545"}}, {"type": "node", "id": 301260997, "lat": 51.0770803, "lon": 17.0398501, "tags": {"bus": "yes", "name": "Gaj", "public_transport": "stop_position", "ref": "21132"}}, {"type": "node", "id": 301638950, "lat": 51.0880235, "lon": 17.0360865, "tags": {"bus": "yes", "name": "Borowska", "public_transport": "stop_position", "ref": "21141"}}, {"type": "node", "id": 301638951, "lat": 51.0879692, "lon": 17.0364622, "tags": {"bus": "yes", "name": "Borowska", "public_transport": "stop_position", "ref": "21142"}}, {"type": "node", "id": 302099490, "lat": 51.0846147, "lon": 17.006955, "tags": {"bus": "yes", "name": "Rac\u0142awicka (szko\u0142a)", "public_transport": "stop_position", "ref": "11545"}}, {"type": "node", "id": 302375785, "lat": 51.0758247, "lon": 17.0075442, "tags": {"bus": "yes", "name": "Krzyki", "public_transport": "stop_position", "ref": "11308"}}, {"type": "node", "id": 302375786, "lat": 51.0752322, "lon": 17.0068405, "tags": {"bus": "yes", "name": "Krzyki", "public_transport": "stop_position", "ref": "11307"}}, {"type": "node", "id": 302375817, "lat": 51.0814631, "lon": 17.0002108, "tags": {"bus": "yes", "name": "Modli\u0144ska", "public_transport": "stop_position", "ref": "11544"}}, {"type": "node", "id": 302375825, "lat": 51.0816134, "lon": 17.0004902, "tags": {"bus": "yes", "name": "Modli\u0144ska", "public_transport": "stop_position", "ref": "11543"}}, {"type": "node", "id": 302376195, "lat": 51.0897213, "lon": 17.0000838, "tags": {"bus": "yes", "name": "Mielecka", "public_transport": "stop_position", "ref": "11553"}}, {"type": "node", "id": 302376201, "lat": 51.0883916, "lon": 17.0053973, "tags": {"bus": "yes", "name": "Gajowicka", "public_transport": "stop_position", "ref": "11539"}}, {"type": "node", "id": 302376202, "lat": 51.0890237, "lon": 17.0068228, "tags": {"bus": "yes", "name": "Gajowicka", "public_transport": "stop_position", "ref": "11537"}}, {"type": "node", "id": 302376203, "lat": 51.0887257, "lon": 17.0065885, "tags": {"bus": "yes", "name": "Gajowicka", "public_transport": "stop_position", "ref": "11538"}}, {"type": "node", "id": 302376205, "lat": 51.0867276, "lon": 17.0111885, "tags": {"bus": "yes", "name": "Hallera", "public_transport": "stop_position", "ref": "11352"}}, {"type": "node", "id": 302376206, "lat": 51.0870817, "lon": 17.0125783, "tags": {"bus": "yes", "name": "Hallera", "public_transport": "stop_position", "ref": "11303"}}, {"type": "node", "id": 302376211, "lat": 51.0843775, "lon": 17.0181428, "tags": {"bus": "yes", "name": "Sudecka", "public_transport": "stop_position", "ref": "11353"}}, {"type": "node", "id": 302698851, "lat": 51.0893032, "lon": 17.0340398, "tags": {"bus": "yes", "name": "Borowska", "public_transport": "stop_position", "ref": "21103"}}, {"type": "node", "id": 302716124, "lat": 51.0776361, "lon": 17.0338416, "tags": {"bus": "yes", "name": "Dzia\u0142kowa", "public_transport": "stop_position", "ref": "21107"}}, {"type": "node", "id": 302858082, "lat": 51.1115556, "lon": 17.0599862, "tags": {"bus": "yes", "name": "Plac Grunwaldzki", "official_name": "pl. Grunwaldzki", "public_transport": "stop_position", "ref": "120820"}}, {"type": "node", "id": 302864598, "lat": 51.1208581, "lon": 17.0351214, "tags": {"bus": "yes", "name": "Pauli\u0144ska", "public_transport": "stop_position", "ref": "120614"}}, {"type": "node", "id": 302921237, "lat": 51.0900853, "lon": 17.0291435, "tags": {"bus": "yes", "name": "Uniwersytet Ekonomiczny", "public_transport": "stop_position", "ref": "11372"}}, {"type": "node", "id": 303152454, "lat": 51.1126249, "lon": 16.9941968, "tags": {"bus": "yes", "name": "Wroc\u0142awski Park Przemys\u0142owy", "public_transport": "stop_position", "ref": "12102"}}, {"type": "node", "id": 303152458, "lat": 51.1113435, "lon": 17.0029547, "tags": {"bus": "yes", "name": "\u015arubowa", "public_transport": "stop_position", "ref": "10546"}}, {"type": "node", "id": 303152460, "lat": 51.1085637, "lon": 17.0187729, "tags": {"bus": "yes", "name": "Dworzec \u015awiebodzki", "official_name": "Dw. \u015awiebodzki", "public_transport": "stop_position", "ref": "10542", "source": "Ortofotomapa_Wroclaw"}}, {"type": "node", "id": 303842279, "lat": 51.0785508, "lon": 17.0639283, "tags": {"bus": "yes", "name": "Tarnogaj", "public_transport": "stop_position", "ref": "21152"}}, {"type": "node", "id": 303842285, "lat": 51.0778671, "lon": 17.0646661, "tags": {"bus": "yes", "name": "Tarnogaj", "public_transport": "stop_position", "ref": "21151"}}, {"type": "node", "id": 303842291, "lat": 51.0828525, "lon": 17.0508147, "tags": {"bus": "yes", "name": "Bardzka", "public_transport": "stop_position", "ref": "21145"}}, {"type": "node", "id": 303842298, "lat": 51.0759284, "lon": 17.0520288, "tags": {"bus": "yes", "name": "Morwowa", "public_transport": "stop_position", "ref": "21129"}}, {"type": "node", "id": 304074163, "lat": 51.0775907, "lon": 17.0145312, "tags": {"bus": "yes", "name": "Skierniewicka", "public_transport": "stop_position", "ref": "11357"}}, {"type": "node", "id": 304074305, "lat": 51.0744034, "lon": 17.0068092, "tags": {"bus": "yes", "name": "Krzyki", "public_transport": "stop_position", "ref": "11312"}}, {"type": "node", "id": 304074311, "lat": 51.0745823, "lon": 17.006593, "tags": {"bus": "yes", "name": "Krzyki", "public_transport": "stop_position", "ref": "11316"}}, {"type": "node", "id": 304074315, "lat": 51.07493, "lon": 17.0065035, "tags": {"bus": "yes", "name": "Krzyki", "public_transport": "stop_position", "ref": "11310"}}, {"type": "node", "id": 304074320, "lat": 51.0749756, "lon": 17.0063127, "tags": {"bus": "yes", "name": "Krzyki", "public_transport": "stop_position", "ref": "11314"}}, {"type": "node", "id": 304074403, "lat": 51.0737547, "lon": 17.0018345, "tags": {"bus": "yes", "name": "Sowia", "public_transport": "stop_position", "ref": "16513"}}, {"type": "node", "id": 304074405, "lat": 51.0737878, "lon": 17.0017065, "tags": {"bus": "yes", "name": "Sowia", "public_transport": "stop_position", "ref": "16514"}}, {"type": "node", "id": 304074407, "lat": 51.075018, "lon": 16.9968858, "tags": {"bus": "yes", "name": "Ch\u0142odna", "public_transport": "stop_position", "ref": "16516"}}, {"type": "node", "id": 304074409, "lat": 51.0751028, "lon": 16.996555, "tags": {"bus": "yes", "name": "Ch\u0142odna", "public_transport": "stop_position", "ref": "16515"}}, {"type": "node", "id": 304074412, "lat": 51.0765682, "lon": 16.9969822, "tags": {"bus": "yes", "name": "Wawrzyniaka", "public_transport": "stop_position", "ref": "16518"}}, {"type": "node", "id": 304085803, "lat": 51.1168984, "lon": 17.0236483, "tags": {"bus": "yes", "name": "Dmowskiego", "public_transport": "stop_position", "ref": "10523"}}, {"type": "node", "id": 304107045, "lat": 51.0770507, "lon": 17.0845439, "tags": {"bus": "yes", "name": "Ksi\u0119\u017ce Ma\u0142e", "public_transport": "stop_position", "ref": "25113"}}, {"type": "node", "id": 304237554, "lat": 51.0769199, "lon": 17.0480766, "tags": {"bus": "yes", "name": "\u015awieradowska", "public_transport": "stop_position", "ref": "21133"}}, {"type": "node", "id": 304383367, "lat": 51.1058965, "lon": 17.0432453, "tags": {"bus": "yes", "name": "Krasi\u0144skiego", "public_transport": "stop_position", "ref": "20332"}}, {"type": "node", "id": 304556854, "lat": 51.0753034, "lon": 17.0329869, "tags": {"bus": "yes", "name": "Borowska (Szpital)", "public_transport": "stop_position", "ref": "21110"}}, {"type": "node", "id": 304556857, "lat": 51.0746546, "lon": 17.032661, "tags": {"bus": "yes", "name": "Borowska (Szpital)", "public_transport": "stop_position", "ref": "21109"}}, {"type": "node", "id": 304637061, "lat": 51.0621325, "lon": 17.031067, "tags": {"bus": "yes", "name": "Parafialna", "public_transport": "stop_position", "ref": "26333"}}, {"type": "node", "id": 304863029, "lat": 51.0945486, "lon": 16.9777329, "tags": {"bus": "yes", "name": "FAT", "public_transport": "stop_position", "ref": "11711"}}, {"type": "node", "id": 304863032, "lat": 51.1141794, "lon": 16.97809, "tags": {"bus": "yes", "disused:public_transport": "stop_position", "name": "Wy\u017csza Szko\u0142a Bankowa", "note": "Przystanek czasowo nieczynny ze wzgl\u0119du zmiany w organizacji ruchu w rejonie ul. Robotniczej w zwi\u0105zku na budow\u0105 TAT na Nowy Dw\u00f3r", "ref": "12105"}}, {"type": "node", "id": 304863034, "lat": 51.1142328, "lon": 16.9794319, "tags": {"bus": "yes", "disused:public_transport": "stop_position", "name": "Wy\u017csza Szko\u0142a Bankowa", "note": "Przystanek czasowo nieczynny ze wzgl\u0119du zmiany w organizacji ruchu w rejonie ul. Robotniczej w zwi\u0105zku na budow\u0105 TAT na Nowy Dw\u00f3r", "ref": "12106"}}, {"type": "node", "id": 304969724, "lat": 51.0550242, "lon": 17.03229, "tags": {"bus": "yes", "name": "Ga\u0142czy\u0144skiego", "public_transport": "stop_position", "ref": "26307"}}, {"type": "node", "id": 304969838, "lat": 51.0583682, "lon": 17.0325389, "tags": {"bus": "yes", "name": "Obo\u017ana", "public_transport": "stop_position", "ref": "26322"}}, {"type": "node", "id": 305007817, "lat": 51.0691106, "lon": 17.0538817, "tags": {"bus": "yes", "name": "Buforowa \u2013 Rondo", "old_name": "Buforowa", "public_transport": "stop_position", "ref": "26101"}}, {"type": "node", "id": 305007818, "lat": 51.0707189, "lon": 17.0537311, "tags": {"bus": "yes", "name": "Buforowa \u2013 Rondo", "old_name": "Buforowa", "public_transport": "stop_position", "ref": "26102"}}, {"type": "node", "id": 305007819, "lat": 51.0769639, "lon": 17.0462815, "tags": {"bus": "yes", "name": "\u015awieradowska", "public_transport": "stop_position", "ref": "21134"}}, {"type": "node", "id": 305063660, "lat": 51.0966199, "lon": 17.0328339, "tags": {"bus": "yes", "name": "Dworzec Autobusowy", "public_transport": "stop_position", "ref": "21102"}}, {"type": "node", "id": 305248693, "lat": 51.0492573, "lon": 17.0593481, "tags": {"bus": "yes", "name": "Vivaldiego", "old_name": "Lamowice", "public_transport": "stop_position", "ref": "26117"}}, {"type": "node", "id": 305248699, "lat": 51.0505413, "lon": 17.0587948, "tags": {"bus": "yes", "name": "Vivaldiego", "old_name": "Lamowice", "public_transport": "stop_position", "ref": "26118"}}, {"type": "node", "id": 305759245, "lat": 51.0713778, "lon": 16.9999489, "tags": {"bus": "yes", "name": "Zimowa", "public_transport": "stop_position", "ref": "16502"}}, {"type": "node", "id": 305759250, "lat": 51.0688203, "lon": 17.0046662, "tags": {"bus": "yes", "name": "Przyja\u017ani", "public_transport": "stop_position", "ref": "16512"}}, {"type": "node", "id": 307809101, "lat": 51.0975334, "lon": 17.0290863, "tags": {"bus": "yes", "name": "EPI", "public_transport": "stop_position", "ref": "11331"}}, {"type": "node", "id": 308925476, "lat": 51.0820136, "lon": 16.9894373, "tags": {"bus": "yes", "name": "Blacharska", "public_transport": "stop_position", "ref": "11747"}}, {"type": "node", "id": 308925514, "lat": 51.0841979, "lon": 16.9903497, "tags": {"bus": "yes", "name": "\u015alusarska", "public_transport": "stop_position", "ref": "11746"}}, {"type": "node", "id": 308925515, "lat": 51.0847489, "lon": 16.9905828, "tags": {"bus": "yes", "name": "\u015alusarska", "public_transport": "stop_position", "ref": "11745"}}, {"type": "node", "id": 308925520, "lat": 51.087957, "lon": 16.991937, "tags": {"bus": "yes", "name": "Aleja W\u0119drowc\u00f3w", "public_transport": "stop_position", "ref": "11741"}}, {"type": "node", "id": 309274864, "lat": 51.1140737, "lon": 17.10373, "tags": {"bus": "yes", "name": "S\u0119polno", "public_transport": "stop_position", "ref": "24322"}}, {"type": "node", "id": 310561922, "lat": 51.0722933, "lon": 17.0530442, "tags": {"bus": "yes", "name": "Bardzka (Cmentarz)", "public_transport": "stop_position", "ref": "21135"}}, {"type": "node", "id": 311151178, "lat": 51.0737527, "lon": 17.0124634, "tags": {"bus": "yes", "name": "Park Po\u0142udniowy", "public_transport": "stop_position", "ref": "11365"}}, {"type": "node", "id": 311407950, "lat": 51.1040622, "lon": 17.0322387, "tags": {"bus": "yes", "name": "Renoma", "public_transport": "stop_position", "ref": "10335"}}, {"type": "node", "id": 311408152, "lat": 51.1009275, "lon": 17.0394781, "tags": {"bus": "yes", "name": "Dworzec G\u0142\u00f3wny (Dworcowa)", "old_name": "Dworcowa", "public_transport": "stop_position", "ref": "20343"}}, {"type": "node", "id": 311408160, "lat": 51.1000098, "lon": 17.0392404, "tags": {"bus": "yes", "check_date": "2016-06-04", "name": "Dworzec G\u0142\u00f3wny (Dworcowa)", "old_name": "Dworcowa", "public_transport": "stop_position", "ref": "20341"}}, {"type": "node", "id": 311408169, "lat": 51.1002632, "lon": 17.0393067, "tags": {"bus": "yes", "name": "Dworzec G\u0142\u00f3wny (Dworcowa)", "old_name": "Dworcowa", "public_transport": "stop_position", "ref": "20345"}}, {"type": "node", "id": 311408252, "lat": 51.0636103, "lon": 17.0836717, "tags": {"bus": "yes", "name": "Broch\u00f3w (Stacja kolejowa)", "public_transport": "stop_position", "ref": "25306"}}, {"type": "node", "id": 311408391, "lat": 51.0590426, "lon": 17.0864977, "tags": {"bus": "yes", "name": "Broch\u00f3w", "public_transport": "stop_position", "ref": "25309"}}, {"type": "node", "id": 312453766, "lat": 51.0917506, "lon": 17.0925911, "tags": {"bus": "yes", "name": "Bierdzany", "public_transport": "stop_position", "ref": "25505"}}, {"type": "node", "id": 312552506, "lat": 51.0949371, "lon": 17.0807225, "tags": {"bus": "yes", "name": "Mi\u0119dzyrzecka", "public_transport": "stop_position", "ref": "25504"}}, {"type": "node", "id": 312606314, "lat": 51.0971004, "lon": 17.0366705, "tags": {"bus": "yes", "name": "Dworzec Autobusowy", "public_transport": "stop_position", "ref": "21120"}}, {"type": "node", "id": 312606354, "lat": 51.1020608, "lon": 17.0297384, "tags": {"bus": "yes", "name": "Arkady (Capitol)", "public_transport": "stop_position", "ref": "10366"}}, {"type": "node", "id": 312606356, "lat": 51.1020146, "lon": 17.0295145, "tags": {"bus": "yes", "name": "Arkady (Capitol)", "public_transport": "stop_position", "ref": "10365"}}, {"type": "node", "id": 312606359, "lat": 51.1071148, "lon": 17.0329264, "tags": {"bus": "yes", "name": "\u015awidnicka", "public_transport": "stop_position", "ref": "10102"}}, {"type": "node", "id": 312606362, "lat": 51.1073805, "lon": 17.0326295, "tags": {"bus": "yes", "name": "\u015awidnicka", "public_transport": "stop_position", "ref": "10101"}}, {"type": "node", "id": 312606380, "lat": 51.1079374, "lon": 17.0373595, "tags": {"bus": "yes", "name": "Galeria Dominika\u0144ska", "public_transport": "stop_position", "ref": "10123"}}, {"type": "node", "id": 312606395, "lat": 51.1074748, "lon": 17.0397351, "tags": {"bus": "yes", "name": "Galeria Dominika\u0144ska", "public_transport": "stop_position", "ref": "10111"}}, {"type": "node", "id": 314063827, "lat": 51.1011188, "lon": 17.0405018, "tags": {"bus": "yes", "name": "Dworcowa", "public_transport": "stop_position", "ref": "20321"}}, {"type": "node", "id": 315946127, "lat": 51.0995132, "lon": 17.0261623, "tags": {"bus": "yes", "name": "Gwia\u017adzista", "public_transport": "stop_position", "ref": "11319"}}, {"type": "node", "id": 317276799, "lat": 51.0979298, "lon": 17.0294273, "tags": {"bus": "yes", "name": "EPI", "public_transport": "stop_position", "ref": "11332"}}, {"type": "node", "id": 317276882, "lat": 51.1090222, "lon": 17.0399371, "tags": {"bus": "yes", "name": "Galeria Dominika\u0144ska", "public_transport": "stop_position", "ref": "10121"}}, {"type": "node", "id": 317276925, "lat": 51.1034512, "lon": 17.0370368, "tags": {"bus": "yes", "name": "Wzg\u00f3rze Partyzant\u00f3w", "old_name": "Eureka", "public_transport": "stop_position", "ref": "10332"}}, {"type": "node", "id": 317678301, "lat": 51.1361566, "lon": 17.0164977, "tags": {"bus": "yes", "name": "\u0141u\u017cycka", "public_transport": "stop_position", "ref": "23112"}}, {"type": "node", "id": 321673740, "lat": 51.0567335, "lon": 17.0223253, "tags": {"bus": "yes", "name": "O\u0142taszyn", "public_transport": "stop_position", "ref": "26341"}}, {"type": "node", "id": 321673743, "lat": 51.0603631, "lon": 17.025538, "tags": {"bus": "yes", "name": "\u015awit", "public_transport": "stop_position", "ref": "26335"}}, {"type": "node", "id": 321881750, "lat": 51.109785, "lon": 17.0477319, "tags": {"bus": "yes", "name": "Urz\u0105d Wojew\u00f3dzki (Muzeum Narodowe)", "public_transport": "stop_position", "ref": "20304"}}, {"type": "node", "id": 321992423, "lat": 51.0588065, "lon": 17.0068892, "tags": {"bus": "yes", "name": "Rondo \u015awi\u0119tego Ojca Pio", "official_name": "rondo \u015bw. Ojca Pio", "public_transport": "stop_position", "ref": "26324"}}, {"type": "node", "id": 321992427, "lat": 51.0596567, "lon": 17.0057035, "tags": {"bus": "yes", "name": "Rondo \u015awi\u0119tego Ojca Pio", "official_name": "rondo \u015bw. Ojca Pio", "public_transport": "stop_position", "ref": "26317"}}, {"type": "node", "id": 322894916, "lat": 51.0837147, "lon": 17.0101281, "tags": {"bus": "yes", "name": "Jastrz\u0119bia", "public_transport": "stop_position", "ref": "11337"}}, {"type": "node", "id": 323116555, "lat": 51.0579843, "lon": 16.9877992, "tags": {"bus": "yes", "name": "Klecina (Stacja kolejowa)", "public_transport": "stop_position", "ref": "16724"}}, {"type": "node", "id": 323225440, "lat": 51.1170189, "lon": 17.0330338, "tags": {"bus": "yes", "name": "Dubois", "public_transport": "stop_position", "ref": "10716"}}, {"type": "node", "id": 324110881, "lat": 51.0835747, "lon": 17.0597071, "tags": {"bus": "yes", "name": "Transbud", "public_transport": "stop_position", "ref": "21147"}}, {"type": "node", "id": 324110885, "lat": 51.0836524, "lon": 17.0587422, "tags": {"bus": "yes", "name": "Transbud", "public_transport": "stop_position", "ref": "21148"}}, {"type": "node", "id": 324110901, "lat": 51.0856278, "lon": 17.0662385, "tags": {"bus": "yes", "name": "Armii Krajowej (Bogedaina)", "old_name": "Mostostal", "public_transport": "stop_position", "ref": "21161"}}, {"type": "node", "id": 324110921, "lat": 51.0825668, "lon": 17.0763324, "tags": {"bus": "yes", "name": "Karwi\u0144ska", "public_transport": "stop_position", "ref": "25108"}}, {"type": "node", "id": 324110924, "lat": 51.0813505, "lon": 17.0783772, "tags": {"bus": "yes", "name": "Karwi\u0144ska", "public_transport": "stop_position", "ref": "25109"}}, {"type": "node", "id": 324110926, "lat": 51.0778138, "lon": 17.0835154, "tags": {"bus": "yes", "name": "Ksi\u0119\u017ce Ma\u0142e", "public_transport": "stop_position", "ref": "25114"}}, {"type": "node", "id": 324437226, "lat": 51.0782179, "lon": 17.0704792, "tags": {"bus": "yes", "name": "Gazowa", "public_transport": "stop_position", "ref": "21155"}}, {"type": "node", "id": 324437229, "lat": 51.0754348, "lon": 17.0761942, "tags": {"bus": "yes", "name": "Wiaduktowa", "public_transport": "stop_position", "ref": "25301"}}, {"type": "node", "id": 324437257, "lat": 51.0632663, "lon": 17.074792, "tags": {"bus": "yes", "name": "Park Brochowski", "public_transport": "stop_position", "ref": "25318"}}, {"type": "node", "id": 324437259, "lat": 51.0627127, "lon": 17.0760138, "tags": {"bus": "yes", "name": "Park Brochowski", "public_transport": "stop_position", "ref": "25317"}}, {"type": "node", "id": 324437298, "lat": 51.063693, "lon": 17.0825728, "tags": {"bus": "yes", "name": "Broch\u00f3w (Stacja kolejowa)", "public_transport": "stop_position", "ref": "25305"}}, {"type": "node", "id": 324437548, "lat": 51.0681173, "lon": 17.0941061, "tags": {"bus": "yes", "name": "Brochowska", "public_transport": "stop_position", "ref": "25118"}}, {"type": "node", "id": 324437552, "lat": 51.0677771, "lon": 17.0944586, "tags": {"bus": "yes", "name": "Brochowska", "public_transport": "stop_position", "ref": "25117"}}, {"type": "node", "id": 324437620, "lat": 51.0740496, "lon": 17.0878978, "tags": {"bus": "yes", "name": "Zag\u0142\u0119biowska", "public_transport": "stop_position", "ref": "25116"}}, {"type": "node", "id": 324437623, "lat": 51.0727256, "lon": 17.089285, "tags": {"bus": "yes", "name": "Zag\u0142\u0119biowska", "public_transport": "stop_position", "ref": "25115"}}, {"type": "node", "id": 324477495, "lat": 51.146648, "lon": 17.1247928, "tags": {"bus": "yes", "name": "Kie\u0142czowska (LZN)", "public_transport": "stop_position", "ref": "29131"}}, {"type": "node", "id": 324547655, "lat": 51.110517, "lon": 17.0485099, "tags": {"bus": "yes", "name": "Urz\u0105d Wojew\u00f3dzki (Muzeum Narodowe)", "public_transport": "stop_position", "ref": "20303"}}, {"type": "node", "id": 324780196, "lat": 51.1322791, "lon": 17.0650627, "tags": {"bus": "yes", "name": "Kromera", "public_transport": "stop_position", "ref": "24101"}}, {"type": "node", "id": 324780203, "lat": 51.1320327, "lon": 17.0656431, "tags": {"bus": "yes", "name": "Kromera", "public_transport": "stop_position", "ref": "24140"}}, {"type": "node", "id": 324780207, "lat": 51.1320193, "lon": 17.0657386, "tags": {"bus": "yes", "name": "Kromera", "public_transport": "stop_position", "ref": "24141"}}, {"type": "node", "id": 324780213, "lat": 51.1320049, "lon": 17.0658299, "tags": {"bus": "yes", "name": "Kromera", "public_transport": "stop_position", "ref": "24142"}}, {"type": "node", "id": 324780218, "lat": 51.1319883, "lon": 17.0659328, "tags": {"bus": "yes", "name": "Kromera", "public_transport": "stop_position", "ref": "24144"}}, {"type": "node", "id": 324780248, "lat": 51.1323222, "lon": 17.0628662, "tags": {"bus": "yes", "name": "Kromera", "public_transport": "stop_position", "ref": "24112"}}, {"type": "node", "id": 324780408, "lat": 51.1393762, "lon": 17.0329986, "tags": {"bus": "yes", "name": "Kamie\u0144skiego", "public_transport": "stop_position", "ref": "23123"}}, {"type": "node", "id": 324780468, "lat": 51.131848, "lon": 17.0652638, "tags": {"bus": "yes", "name": "Kromera", "public_transport": "stop_position", "ref": "24111"}}, {"type": "node", "id": 327389892, "lat": 51.1593902, "lon": 17.121596, "tags": {"bus": "yes", "name": "Przedwio\u015bnie (Stacja kolejowa)", "public_transport": "stop_position", "ref": "29506"}}, {"type": "node", "id": 327390038, "lat": 51.1602699, "lon": 17.1220702, "tags": {"bus": "yes", "direction": "forward", "name": "Przedwio\u015bnie (Stacja kolejowa)", "public_transport": "stop_position", "ref": "29505"}}, {"type": "node", "id": 329795304, "lat": 51.1404318, "lon": 17.094195, "tags": {"bus": "yes", "name": "Olszty\u0144ska", "old_name": "C.H. Korona", "public_transport": "stop_position", "ref": "24129"}}, {"type": "node", "id": 331340009, "lat": 51.1171069, "lon": 17.0513776, "tags": {"bus": "yes", "name": "Ogr\u00f3d Botaniczny", "public_transport": "stop_position", "ref": "20903"}}, {"type": "node", "id": 332204791, "lat": 51.1601931, "lon": 17.1209768, "tags": {"bus": "yes", "name": "Przedwio\u015bnie (Stacja kolejowa)", "public_transport": "stop_position", "ref": "29531"}}, {"type": "node", "id": 332204802, "lat": 51.1639747, "lon": 17.1117771, "tags": {"bus": "yes", "name": "Azaliowa", "public_transport": "stop_position", "ref": "29533"}}, {"type": "node", "id": 332204806, "lat": 51.167417, "lon": 17.1060913, "tags": {"bus": "yes", "direction": "forward", "name": "Starod\u0119bowa", "public_transport": "stop_position", "ref": "29537"}}, {"type": "node", "id": 332204815, "lat": 51.1668709, "lon": 17.1099883, "tags": {"bus": "yes", "direction": "forward", "name": "Malwowa", "public_transport": "stop_position", "ref": "29536"}}, {"type": "node", "id": 332606788, "lat": 51.143778, "lon": 17.1192589, "tags": {"bus": "yes", "name": "Gorlicka", "public_transport": "stop_position", "ref": "29124"}}, {"type": "node", "id": 332606790, "lat": 51.1388428, "lon": 17.1304622, "tags": {"bus": "yes", "name": "Zgorzelisko", "public_transport": "stop_position", "ref": "29304"}}, {"type": "node", "id": 333276105, "lat": 51.102087, "lon": 17.0253108, "tags": {"bus": "yes", "name": "Pi\u0142sudskiego", "public_transport": "stop_position", "ref": "10376"}}, {"type": "node", "id": 333276111, "lat": 51.1123389, "lon": 17.0227717, "tags": {"bus": "yes", "name": "Plac Jana Paw\u0142a II", "official_name": "Pl. Jana Paw\u0142a II", "public_transport": "stop_position", "ref": "10535", "source": "Ortofotomapa_Wroclaw"}}, {"type": "node", "id": 333276118, "lat": 51.1121176, "lon": 17.0205666, "tags": {"alt_name": "Plac Jana Paw\u0142a Drugiego", "bus": "yes", "name": "Plac Jana Paw\u0142a II", "official_name": "pl. Jana Paw\u0142a II", "public_transport": "stop_position", "ref": "10501"}}, {"type": "node", "id": 333276128, "lat": 51.1095613, "lon": 17.0265833, "tags": {"bus": "yes", "name": "Rynek", "public_transport": "stop_position", "ref": "10108"}}, {"type": "node", "id": 338391255, "lat": 51.1405714, "lon": 17.1263216, "tags": {"bus": "yes", "name": "Palacha", "public_transport": "stop_position", "ref": "29302"}}, {"type": "node", "id": 338391258, "lat": 51.1405453, "lon": 17.1263815, "tags": {"bus": "yes", "name": "Palacha", "public_transport": "stop_position", "ref": "29301"}}, {"type": "node", "id": 339867395, "lat": 51.1111242, "lon": 17.0271119, "tags": {"bus": "yes", "name": "Rynek", "public_transport": "stop_position", "ref": "10103"}}, {"type": "node", "id": 340427542, "lat": 51.1135846, "lon": 16.9904747, "tags": {"bus": "yes", "name": "Dolno\u015bl\u0105ska Szko\u0142a Wy\u017csza", "public_transport": "stop_position", "ref": "12103"}}, {"type": "node", "id": 346631998, "lat": 51.141145, "lon": 17.0250253, "tags": {"bus": "yes", "name": "Bezpieczna", "public_transport": "stop_position", "ref": "23116"}}, {"type": "node", "id": 346632309, "lat": 51.1376549, "lon": 17.030532, "tags": {"bus": "yes", "name": "Ba\u0142tycka", "public_transport": "stop_position", "ref": "23147"}}, {"type": "node", "id": 346632667, "lat": 51.1358146, "lon": 17.03525, "tags": {"bus": "yes", "name": "Broniewskiego", "public_transport": "stop_position", "ref": "23141"}}, {"type": "node", "id": 346633652, "lat": 51.1364001, "lon": 16.9993193, "tags": {"bus": "yes", "name": "Most Milenijny", "public_transport": "stop_position", "ref": "23109"}}, {"type": "node", "id": 346633779, "lat": 51.1323442, "lon": 16.9898603, "tags": {"bus": "yes", "name": "Hala Orbita", "public_transport": "stop_position", "ref": "12320"}}, {"type": "node", "id": 346633894, "lat": 51.1290771, "lon": 16.9854185, "tags": {"bus": "yes", "name": "Wejherowska", "public_transport": "stop_position", "ref": "12317"}}, {"type": "node", "id": 347516757, "lat": 51.1288251, "lon": 16.973037, "tags": {"bus": "yes", "name": "Park Zachodni", "public_transport": "stop_position", "ref": "12502"}}, {"type": "node", "id": 349310268, "lat": 51.1170743, "lon": 17.0255952, "tags": {"bus": "yes", "name": "Dmowskiego", "public_transport": "stop_position", "ref": "10555"}}, {"type": "node", "id": 352926046, "lat": 51.1640875, "lon": 17.1121201, "tags": {"bus": "yes", "name": "Azaliowa", "public_transport": "stop_position", "ref": "29534"}}, {"type": "node", "id": 354587963, "lat": 51.1487024, "lon": 17.0756482, "tags": {"bus": "yes", "name": "Redycka", "public_transport": "stop_position", "ref": "23722"}}, {"type": "node", "id": 354587977, "lat": 51.1492158, "lon": 17.074995, "tags": {"bus": "yes", "name": "Redycka", "public_transport": "stop_position", "ref": "23721"}}, {"type": "node", "id": 354588019, "lat": 51.1556595, "lon": 17.0643707}, {"type": "node", "id": 354588148, "lat": 51.1587435, "lon": 17.0444981, "tags": {"bus": "yes", "name": "\u0141ugowa", "public_transport": "stop_position", "ref": "23556"}}, {"type": "node", "id": 354588456, "lat": 51.1551055, "lon": 17.0647312}, {"type": "node", "id": 354588475, "lat": 51.1555618, "lon": 17.0642203}, {"type": "node", "id": 354588478, "lat": 51.1551901, "lon": 17.0645788, "tags": {"bus": "yes", "name": "So\u0142tysowice", "public_transport": "stop_position", "ref": "23730"}}, {"type": "node", "id": 355192681, "lat": 51.1238079, "lon": 16.9498816, "tags": {"bus": "yes", "name": "Ku\u017aniki", "public_transport": "stop_position", "ref": "12911"}}, {"type": "node", "id": 355192683, "lat": 51.1233735, "lon": 16.9501293, "tags": {"bus": "yes", "name": "Ku\u017aniki", "public_transport": "stop_position", "ref": "12903"}}, {"type": "node", "id": 355874740, "lat": 51.1116548, "lon": 17.1364697, "tags": {"bus": "yes", "name": "Miko\u0142owska", "public_transport": "stop_position", "ref": "24722"}}, {"type": "node", "id": 355875072, "lat": 51.1067419, "lon": 17.1430811, "tags": {"bus": "yes", "name": "Zagrodnicza", "public_transport": "stop_position", "ref": "24712"}}, {"type": "node", "id": 355875073, "lat": 51.1071929, "lon": 17.1423897, "tags": {"bus": "yes", "direction": "backward", "name": "Zagrodnicza", "public_transport": "stop_position", "ref": "24711"}}, {"type": "node", "id": 358344711, "lat": 51.1359433, "lon": 17.0374812, "tags": {"bus": "yes", "name": "Broniewskiego", "public_transport": "stop_position", "ref": "23131"}}, {"type": "node", "id": 358344714, "lat": 51.1371124, "lon": 17.02953, "tags": {"bus": "yes", "name": "Ba\u0142tycka", "public_transport": "stop_position", "ref": "23172"}}, {"type": "node", "id": 358344716, "lat": 51.1366527, "lon": 17.0306734, "tags": {"bus": "yes", "name": "Ba\u0142tycka", "public_transport": "stop_position", "ref": "23144"}}, {"type": "node", "id": 358344717, "lat": 51.1428607, "lon": 17.0252033, "tags": {"bus": "yes", "name": "Bezpieczna", "public_transport": "stop_position", "ref": "23145"}}, {"type": "node", "id": 358344719, "lat": 51.1414771, "lon": 17.0264598, "tags": {"bus": "yes", "name": "Bezpieczna", "public_transport": "stop_position", "ref": "23146"}}, {"type": "node", "id": 358352175, "lat": 51.1478033, "lon": 17.0206281, "tags": {"bus": "yes", "name": "Paprotna", "public_transport": "stop_position", "ref": "23150"}}, {"type": "node", "id": 358352177, "lat": 51.1366475, "lon": 17.0431738, "tags": {"bus": "yes", "name": "Pola", "public_transport": "stop_position", "ref": "23134"}}, {"type": "node", "id": 358352178, "lat": 51.1368414, "lon": 17.0447818, "tags": {"bus": "yes", "name": "Pola", "public_transport": "stop_position", "ref": "23133"}}, {"type": "node", "id": 358352179, "lat": 51.1379299, "lon": 17.053726, "tags": {"bus": "yes", "name": "Kasprowicza", "public_transport": "stop_position", "ref": "23704"}}, {"type": "node", "id": 363434986, "lat": 51.1549389, "lon": 16.9388664, "tags": {"bus": "yes", "name": "\u015aliwowa", "public_transport": "stop_position", "ref": "18517"}}, {"type": "node", "id": 363435031, "lat": 51.1575343, "lon": 16.9240801, "tags": {"bus": "yes", "name": "Brodzka", "public_transport": "stop_position", "ref": "18533"}}, {"type": "node", "id": 367714492, "lat": 51.0897282, "lon": 17.0266119, "tags": {"bus": "yes", "name": "Uniwersytet Ekonomiczny", "public_transport": "stop_position", "ref": "11341"}}, {"type": "node", "id": 367714508, "lat": 51.0781743, "lon": 16.9981754, "tags": {"bus": "yes", "name": "Wawrzyniaka", "public_transport": "stop_position", "ref": "16517"}}, {"type": "node", "id": 367714517, "lat": 51.0696242, "lon": 16.997348, "tags": {"bus": "yes", "name": "Osiedle Przyja\u017ani", "official_name": "Os. Przyja\u017ani", "public_transport": "stop_position", "ref": "16504"}}, {"type": "node", "id": 367714528, "lat": 51.065527, "lon": 16.9877801, "tags": {"bus": "yes", "name": "Klecina", "public_transport": "stop_position", "ref": "16506"}}, {"type": "node", "id": 367714540, "lat": 51.0661732, "lon": 16.9893045, "tags": {"bus": "yes", "name": "Skarbowc\u00f3w", "public_transport": "stop_position", "ref": "16505"}}, {"type": "node", "id": 367714638, "lat": 51.0846807, "lon": 17.0037665, "tags": {"bus": "yes", "name": "Gajowicka (szko\u0142a)", "public_transport": "stop_position", "ref": "11546"}}, {"type": "node", "id": 367715542, "lat": 51.0597639, "lon": 16.9745339, "tags": {"bus": "yes", "name": "S\u0142oneczna", "public_transport": "stop_position", "ref": "16714"}}, {"type": "node", "id": 367715556, "lat": 51.0587307, "lon": 16.9738122, "tags": {"bus": "yes", "name": "S\u0142oneczna", "public_transport": "stop_position", "ref": "16715"}}, {"type": "node", "id": 367715566, "lat": 51.0568122, "lon": 16.9713589, "tags": {"bus": "yes", "name": "Po\u0142abian", "public_transport": "stop_position", "ref": "16720"}}, {"type": "node", "id": 367715627, "lat": 51.0639167, "lon": 16.9838066, "tags": {"bus": "yes", "name": "Ko\u015bcielna", "public_transport": "stop_position", "ref": "16702"}}, {"type": "node", "id": 367715636, "lat": 51.0639861, "lon": 16.9796457, "tags": {"bus": "yes", "name": "Wa\u0142brzyska", "public_transport": "stop_position", "ref": "16704"}}, {"type": "node", "id": 367987529, "lat": 51.1077664, "lon": 17.0456985, "tags": {"bus": "yes", "name": "Poczta G\u0142\u00f3wna", "public_transport": "stop_position", "ref": "20302"}}, {"type": "node", "id": 367987533, "lat": 51.1070861, "lon": 17.072974, "tags": {"bus": "yes", "name": "Hala Stulecia", "public_transport": "stop_position", "ref": "24501"}}, {"type": "node", "id": 367987536, "lat": 51.1074115, "lon": 17.0725575, "tags": {"bus": "yes", "name": "Hala Stulecia", "public_transport": "stop_position", "ref": "24502"}}, {"type": "node", "id": 369029515, "lat": 51.0651083, "lon": 17.0646348, "tags": {"bus": "yes", "name": "Tunelowa", "public_transport": "stop_position", "ref": "26114"}}, {"type": "node", "id": 369029521, "lat": 51.0649094, "lon": 17.0655521, "tags": {"bus": "yes", "name": "Tunelowa", "public_transport": "stop_position", "ref": "26113"}}, {"type": "node", "id": 369029527, "lat": 51.0662692, "lon": 17.0592221, "tags": {"bus": "yes", "name": "ROD Zgoda", "public_transport": "stop_position", "ref": "26112"}}, {"type": "node", "id": 369029533, "lat": 51.0641132, "lon": 17.0692259, "tags": {"bus": "yes", "name": "ROD Mieczyk", "public_transport": "stop_position", "ref": "26116"}}, {"type": "node", "id": 369029543, "lat": 51.0639409, "lon": 17.0724388, "tags": {"bus": "yes", "name": "ROD Mieczyk", "public_transport": "stop_position", "ref": "26115"}}, {"type": "node", "id": 369029549, "lat": 51.0603877, "lon": 17.0831804, "tags": {"bus": "yes", "name": "Chi\u0144ska", "public_transport": "stop_position", "ref": "25316"}}, {"type": "node", "id": 369593229, "lat": 51.0636352, "lon": 16.9812778, "tags": {"bus": "yes", "name": "Ko\u015bcielna", "public_transport": "stop_position", "ref": "16701"}}, {"type": "node", "id": 369593384, "lat": 51.0762851, "lon": 16.9721945, "tags": {"bus": "yes", "name": "Stanki", "public_transport": "stop_position", "ref": "17135"}}, {"type": "node", "id": 369593385, "lat": 51.0764434, "lon": 16.9685867, "tags": {"bus": "yes", "name": "Kad\u0142ubka", "public_transport": "stop_position", "ref": "17133"}}, {"type": "node", "id": 369593403, "lat": 51.0932018, "lon": 16.978234, "tags": {"bus": "yes", "name": "Fio\u0142kowa", "public_transport": "stop_position", "ref": "11728"}}, {"type": "node", "id": 369593419, "lat": 51.0937868, "lon": 16.9804058, "tags": {"bus": "yes", "name": "FAT", "public_transport": "stop_position", "ref": "11726"}}, {"type": "node", "id": 369593424, "lat": 51.0945848, "lon": 16.992012, "tags": {"bus": "yes", "name": "In\u017cynierska", "public_transport": "stop_position", "ref": "11722"}}, {"type": "node", "id": 369593427, "lat": 51.0940188, "lon": 16.9968966, "tags": {"bus": "yes", "name": "Kolbuszowska (Stadion)", "public_transport": "stop_position", "ref": "11526"}}, {"type": "node", "id": 369593429, "lat": 51.0922672, "lon": 16.9863273, "tags": {"bus": "yes", "name": "Aleja Pracy", "public_transport": "stop_position", "ref": "11724"}}, {"type": "node", "id": 369593431, "lat": 51.093334, "lon": 17.0025421, "tags": {"bus": "yes", "name": "Krucza (Mielecka)", "public_transport": "stop_position", "ref": "11524"}}, {"type": "node", "id": 369593433, "lat": 51.0939243, "lon": 17.0180194, "tags": {"bus": "yes", "name": "Plac Hirszfelda", "official_name": "pl. Hirszfelda", "public_transport": "stop_position", "ref": "11336"}}, {"type": "node", "id": 369593437, "lat": 51.0934973, "lon": 17.0084839, "tags": {"bus": "yes", "name": "Krucza", "public_transport": "stop_position", "ref": "11522"}}, {"type": "node", "id": 369593439, "lat": 51.0923815, "lon": 17.0235452, "tags": {"bus": "yes", "name": "Komandorska", "public_transport": "stop_position", "ref": "11334"}}, {"type": "node", "id": 370288611, "lat": 51.1536527, "lon": 17.1045159, "tags": {"bus": "yes", "name": "ROD Pod D\u0119bem", "public_transport": "stop_position", "ref": "29516"}}, {"type": "node", "id": 370441692, "lat": 51.0660857, "lon": 17.0600372, "tags": {"bus": "yes", "name": "ROD Zgoda", "public_transport": "stop_position", "ref": "26111"}}, {"type": "node", "id": 370441695, "lat": 51.0609003, "lon": 17.0818755, "tags": {"bus": "yes", "name": "Chi\u0144ska", "public_transport": "stop_position", "ref": "25307"}}, {"type": "node", "id": 370442114, "lat": 51.0853476, "lon": 17.0654571, "tags": {"bus": "yes", "name": "Armii Krajowej (Bogedaina)", "old_name": "Mostostal", "public_transport": "stop_position", "ref": "21162"}}, {"type": "node", "id": 370442187, "lat": 51.0829687, "lon": 17.0548958, "tags": {"bus": "yes", "name": "Nyska", "public_transport": "stop_position", "ref": "21157"}}, {"type": "node", "id": 370679665, "lat": 51.1063056, "lon": 17.0940925, "tags": {"bus": "yes", "name": "Partyzant\u00f3w", "public_transport": "stop_position", "ref": "24511"}}, {"type": "node", "id": 370679669, "lat": 51.1064083, "lon": 17.0993333, "tags": {"bus": "yes", "name": "Okrzei", "public_transport": "stop_position", "ref": "24513"}}, {"type": "node", "id": 370680087, "lat": 51.1025667, "lon": 17.1159537, "tags": {"bus": "yes", "name": "Bartoszowice", "public_transport": "stop_position", "ref": "24509"}}, {"type": "node", "id": 370680246, "lat": 51.1010773, "lon": 17.1085735, "tags": {"bus": "yes", "name": "Biskupin", "public_transport": "stop_position", "ref": "24508"}}, {"type": "node", "id": 370680249, "lat": 51.1020513, "lon": 17.1023659, "tags": {"bus": "yes", "name": "Sp\u00f3\u0142dzielcza", "public_transport": "stop_position", "ref": "24506"}}, {"type": "node", "id": 370897918, "lat": 51.0952447, "lon": 16.9728393, "tags": {"bus": "yes", "name": "Ostrowskiego", "public_transport": "stop_position", "ref": "11713"}}, {"type": "node", "id": 370897920, "lat": 51.0959217, "lon": 16.9621289, "tags": {"bus": "yes", "name": "Ko\u0144cowa", "public_transport": "stop_position", "ref": "17310"}}, {"type": "node", "id": 370897922, "lat": 51.0966766, "lon": 16.9547101, "tags": {"bus": "yes", "name": "Krzemieniecka", "public_transport": "stop_position", "ref": "17308"}}, {"type": "node", "id": 370897924, "lat": 51.0969694, "lon": 16.9467676, "tags": {"bus": "yes", "name": "Stanis\u0142awowska (Wroc\u0142awski Klub Formaty)", "official_name": "Stanis\u0142awowska (W.K. Formaty)", "public_transport": "stop_position", "ref": "17306"}}, {"type": "node", "id": 371217823, "lat": 51.0570114, "lon": 17.0569471, "tags": {"bus": "yes", "name": "Jagodzi\u0144ska", "old_name": "Jagodno", "public_transport": "stop_position", "ref": "26107"}}, {"type": "node", "id": 373493163, "lat": 51.0904156, "lon": 16.9922124, "tags": {"bus": "yes", "name": "Ojca Beyzyma", "public_transport": "stop_position", "ref": "11744"}}, {"type": "node", "id": 374459264, "lat": 51.0913463, "lon": 16.9866206, "tags": {"bus": "yes", "name": "Aleja Pracy", "public_transport": "stop_position", "ref": "11727"}}, {"type": "node", "id": 382948593, "lat": 51.1423058, "lon": 17.1295345, "tags": {"bus": "yes", "name": "Inflancka", "public_transport": "stop_position", "ref": "29319"}}, {"type": "node", "id": 382948596, "lat": 51.1424113, "lon": 17.130429, "tags": {"bus": "yes", "name": "Inflancka", "public_transport": "stop_position", "ref": "29320"}}, {"type": "node", "id": 382948598, "lat": 51.1428854, "lon": 17.1343858, "tags": {"bus": "yes", "name": "Kowie\u0144ska", "public_transport": "stop_position", "ref": "29317"}}, {"type": "node", "id": 382972693, "lat": 51.1146545, "lon": 17.1288786, "tags": {"bus": "yes", "name": "Swojczyce", "public_transport": "stop_position", "ref": "24707"}}, {"type": "node", "id": 385553577, "lat": 51.0696056, "lon": 17.0801925, "tags": {"bus": "yes", "name": "Topolowa", "public_transport": "stop_position", "ref": "25303"}}, {"type": "node", "id": 388392955, "lat": 51.1315523, "lon": 17.0626501, "tags": {"bus": "yes", "name": "Kromera", "public_transport": "stop_position", "ref": "24102"}}, {"type": "node", "id": 388392956, "lat": 51.1278802, "lon": 17.0549771, "tags": {"bus": "yes", "name": "Mosty Warszawskie", "public_transport": "stop_position", "ref": "20724"}}, {"type": "node", "id": 388392962, "lat": 51.1264983, "lon": 17.0547557, "tags": {"bus": "yes", "name": "Damrota", "public_transport": "stop_position", "ref": "20723"}}, {"type": "node", "id": 390008863, "lat": 51.1342015, "lon": 17.0366668, "tags": {"bus": "yes", "name": "Kar\u0142owice", "public_transport": "stop_position", "ref": "23181"}}, {"type": "node", "id": 390008895, "lat": 51.1393794, "lon": 17.0312775, "tags": {"bus": "yes", "name": "Kamie\u0144skiego", "public_transport": "stop_position", "ref": "23130"}}, {"type": "node", "id": 390008916, "lat": 51.1217825, "lon": 17.0307624, "tags": {"bus": "yes", "name": "Plac Staszica", "official_name": "pl. Staszica", "public_transport": "stop_position", "ref": "10704"}}, {"type": "node", "id": 393460225, "lat": 51.1331005, "lon": 17.0275687, "tags": {"bus": "yes", "name": "Most Osobowicki", "public_transport": "stop_position", "ref": "123002"}}, {"type": "node", "id": 393460587, "lat": 51.1287339, "lon": 17.0560935, "tags": {"bus": "yes", "name": "Mosty Warszawskie", "public_transport": "stop_position", "ref": "20729"}}, {"type": "node", "id": 393836368, "lat": 51.0951834, "lon": 17.1231275, "tags": {"bus": "yes", "name": "Opatowicka nr 85", "public_transport": "stop_position", "ref": "25510"}}, {"type": "node", "id": 394842035, "lat": 51.1225537, "lon": 17.0526372, "tags": {"bus": "yes", "name": "Wyszy\u0144skiego", "public_transport": "stop_position", "ref": "20722"}}, {"type": "node", "id": 411810915, "lat": 51.0680576, "lon": 16.9695059, "tags": {"bus": "yes", "name": "Gie\u0142dowa (Centrum Hurtu)", "public_transport": "stop_position", "ref": "17119"}}, {"type": "node", "id": 443422317, "lat": 51.1652816, "lon": 16.8819094, "tags": {"bus": "yes", "name": "Bojanowska", "public_transport": "stop_position", "ref": "18733"}}, {"type": "node", "id": 443422328, "lat": 51.1430972, "lon": 16.8669263, "tags": {"bus": "yes", "name": "Rubczaka (Stacja kolejowa)", "public_transport": "stop_position", "ref": "18390"}}, {"type": "node", "id": 446025829, "lat": 51.1354964, "lon": 17.0691396, "tags": {"bus": "yes", "name": "Kromera (Czajkowskiego)", "public_transport": "stop_position", "ref": "24146"}}, {"type": "node", "id": 446025830, "lat": 51.1380307, "lon": 17.0751393, "tags": {"bus": "yes", "name": "Grudzi\u0105dzka", "public_transport": "stop_position", "ref": "24103"}}, {"type": "node", "id": 446025831, "lat": 51.1378061, "lon": 17.0736372, "tags": {"bus": "yes", "name": "Grudzi\u0105dzka", "public_transport": "stop_position", "ref": "24104"}}, {"type": "node", "id": 446025834, "lat": 51.141635, "lon": 17.0647356, "tags": {"bus": "yes", "name": "Koszarowa (Szpital)", "public_transport": "stop_position", "ref": "23710"}}, {"type": "node", "id": 446025836, "lat": 51.139304, "lon": 17.0609928, "tags": {"bus": "yes", "name": "Przybyszewskiego", "official_name": "pl. Dani\u0142owskiego", "public_transport": "stop_position", "ref": "23714"}}, {"type": "node", "id": 446025837, "lat": 51.1355971, "lon": 17.0575386, "tags": {"bus": "yes", "name": "Berenta", "public_transport": "stop_position", "ref": "23731"}}, {"type": "node", "id": 448138521, "lat": 51.1303359, "lon": 16.8476003, "tags": {"bus": "yes", "name": "Raty\u0144 \u2013 skrzy\u017cowanie", "public_transport": "stop_position", "ref": "18330"}}, {"type": "node", "id": 469129003, "lat": 51.0769782, "lon": 17.0419786, "tags": {"bus": "yes", "name": "Gaj", "public_transport": "stop_position", "ref": "21131"}}, {"type": "node", "id": 487083463, "lat": 51.0616348, "lon": 17.1008993, "tags": {"bus": "yes", "name": "Radwanice \u2013 Skrajna", "public_transport": "stop_position", "ref": "25123"}}, {"type": "node", "id": 510127289, "lat": 51.1447919, "lon": 16.8716334, "tags": {"bus": "yes", "name": "Le\u015bnica", "public_transport": "stop_position", "ref": "18383"}}, {"type": "node", "id": 529410653, "lat": 51.1565457, "lon": 17.0322291, "tags": {"bus": "yes", "name": "Po\u015bwi\u0119cka (O\u015brodek zdrowia)", "public_transport": "stop_position", "ref": "23541"}}, {"type": "node", "id": 556121216, "lat": 51.1119066, "lon": 17.064121, "tags": {"bus": "yes", "bus_routes": "Flixbus 1301, 1302, 1303, 1304, N1300, N1304, N1305", "name": "Plac Grunwaldzki", "official_name": "pl. Grunwaldzki", "public_transport": "stop_position", "ref": "20920"}}, {"type": "node", "id": 556121218, "lat": 51.1127727, "lon": 17.065002, "tags": {"bus": "yes", "name": "Norwida", "public_transport": "stop_position", "ref": "20925"}}, {"type": "node", "id": 599341959, "lat": 51.0794088, "lon": 17.0504924, "tags": {"bus": "yes", "name": "Krynicka", "public_transport": "stop_position", "ref": "21127"}}, {"type": "node", "id": 599341992, "lat": 51.0767002, "lon": 17.0506022, "tags": {"bus": "yes", "name": "Gaj \u2013 p\u0119tla", "public_transport": "stop_position", "ref": "21138"}}, {"type": "node", "id": 599719115, "lat": 51.0659151, "lon": 17.0322659, "tags": {"bus": "yes", "name": "Wojszyce", "public_transport": "stop_position", "ref": "26304"}}, {"type": "node", "id": 631867328, "lat": 51.1967056, "lon": 16.9750062, "tags": {"bus": "yes", "name": "\u015awiniary", "public_transport": "stop_position", "ref": "23515"}}, {"type": "node", "id": 637776775, "lat": 51.098225, "lon": 17.0306641, "tags": {"bus": "yes", "name": "EPI", "public_transport": "stop_position", "ref": "11322"}}, {"type": "node", "id": 663247169, "lat": 51.1627815, "lon": 17.0458957, "tags": {"bus": "yes", "name": "Polanowice", "public_transport": "stop_position", "ref": "23558"}}, {"type": "node", "id": 904397527, "lat": 51.1350927, "lon": 17.036677, "tags": {"bus": "yes", "name": "Broniewskiego", "public_transport": "stop_position", "ref": "23122"}}, {"type": "node", "id": 932111534, "lat": 51.1513574, "lon": 16.9928913, "tags": {"bus": "yes", "name": "G\u00f3ra Kapliczna", "public_transport": "stop_position", "ref": "23315"}}, {"type": "node", "id": 971043807, "lat": 51.1573912, "lon": 17.0093927, "tags": {"bus": "yes", "name": "Obornicka (Obwodnica)", "public_transport": "stop_position", "ref": "23156"}}, {"type": "node", "id": 971044048, "lat": 51.1559659, "lon": 17.0336134, "tags": {"bus": "yes", "name": "Po\u015bwi\u0119cka", "public_transport": "stop_position", "ref": "23542"}}, {"type": "node", "id": 999717085, "lat": 51.1613027, "lon": 17.0275821, "tags": {"bus": "yes", "name": "Lekarska", "public_transport": "stop_position", "ref": "23525"}}, {"type": "node", "id": 1043538480, "lat": 51.121597, "lon": 16.9469884, "tags": {"bus": "yes", "name": "Ko\u0142obrzeska", "public_transport": "stop_position", "ref": "12130"}}, {"type": "node", "id": 1123382798, "lat": 51.1126352, "lon": 16.959751, "tags": {"bus": "yes", "name": "Nowy Dw\u00f3r", "public_transport": "stop_position", "ref": "12122"}}, {"type": "node", "id": 1123382869, "lat": 51.113807, "lon": 16.9647474, "tags": {"bus": "yes", "name": "Nowodworska", "public_transport": "stop_position", "ref": "12107"}}, {"type": "node", "id": 1123383716, "lat": 51.1124216, "lon": 16.960891, "tags": {"bus": "yes", "name": "Nowy Dw\u00f3r", "public_transport": "stop_position", "ref": "12110"}}, {"type": "node", "id": 1126573681, "lat": 51.0773292, "lon": 17.0516228, "tags": {"bus": "yes", "name": "Morwowa", "public_transport": "stop_position", "ref": "121026"}}, {"type": "node", "id": 1128336039, "lat": 51.0766254, "lon": 17.053212, "tags": {"bus": "yes", "name": "Morwowa", "public_transport": "stop_position", "ref": "21137"}}, {"type": "node", "id": 1210848807, "lat": 51.0811929, "lon": 17.0767418, "tags": {"bus": "yes", "name": "Karwi\u0144ska", "public_transport": "stop_position", "ref": "25111"}}, {"type": "node", "id": 1254530096, "lat": 51.1405766, "lon": 16.887473, "tags": {"bus": "yes", "name": "Wielkopolska", "public_transport": "stop_position", "ref": "18143"}}, {"type": "node", "id": 1256475100, "lat": 51.1374774, "lon": 16.8990169, "tags": {"bus": "yes", "name": "Ma\u0142opolska (O\u015brodek dla niewidomych)", "public_transport": "stop_position", "ref": "18148"}}, {"type": "node", "id": 1256475110, "lat": 51.1389969, "lon": 16.8933763, "tags": {"bus": "yes", "name": "Z\u0142otniki", "public_transport": "stop_position", "ref": "18146"}}, {"type": "node", "id": 1256475116, "lat": 51.1410985, "lon": 16.8869394, "tags": {"bus": "yes", "name": "Wielkopolska", "public_transport": "stop_position", "ref": "18144"}}, {"type": "node", "id": 1256475168, "lat": 51.1394832, "lon": 16.8916001, "tags": {"bus": "yes", "name": "Z\u0142otniki", "public_transport": "stop_position", "ref": "18145"}}, {"type": "node", "id": 1256475172, "lat": 51.1437098, "lon": 16.8893358, "tags": {"bus": "yes", "name": "Z\u0142otnicka", "public_transport": "stop_position", "ref": "18141"}}, {"type": "node", "id": 1264876345, "lat": 51.1382998, "lon": 16.9424536, "tags": {"bus": "yes", "name": "Stadion Wroc\u0142aw (Lotnicza)", "public_transport": "stop_position", "ref": "18111"}}, {"type": "node", "id": 1280157509, "lat": 51.1306367, "lon": 16.8476474, "tags": {"bus": "yes", "name": "Raty\u0144 \u2013 skrzy\u017cowanie", "public_transport": "stop_position", "ref": "18329"}}, {"type": "node", "id": 1280774692, "lat": 51.1050601, "lon": 16.8991625, "tags": {"bus": "yes", "name": "Strachowice General Aviation", "public_transport": "stop_position", "ref": "17511"}}, {"type": "node", "id": 1293002871, "lat": 51.1022385, "lon": 17.0255191}, {"type": "node", "id": 1293002872, "lat": 51.1019038, "lon": 17.0250625}, {"type": "node", "id": 1293002882, "lat": 51.1016432, "lon": 17.0247476}, {"type": "node", "id": 1309457843, "lat": 51.149525, "lon": 17.1188139, "tags": {"bus": "yes", "name": "Psie Pole (stacja kolejowa)", "public_transport": "stop_position", "ref": "29116"}}, {"type": "node", "id": 1333244831, "lat": 51.1466767, "lon": 17.0741444, "tags": {"bus": "yes", "name": "Poprzeczna", "public_transport": "stop_position", "ref": "23719"}}, {"type": "node", "id": 1333257032, "lat": 51.1527751, "lon": 17.0692762, "tags": {"bus": "yes", "name": "Bagatela", "public_transport": "stop_position", "ref": "23723"}}, {"type": "node", "id": 1333257033, "lat": 51.1522586, "lon": 17.070151, "tags": {"bus": "yes", "name": "Bagatela", "public_transport": "stop_position", "ref": "23724"}}, {"type": "node", "id": 1346184891, "lat": 51.1077206, "lon": 16.8991645, "tags": {"bus": "yes", "name": "Zarembowicza", "public_transport": "stop_position", "ref": "17509"}}, {"type": "node", "id": 1346184942, "lat": 51.111797, "lon": 16.8885187, "tags": {"abandoned:public_transport": "stop_position", "bus": "yes", "name": "Rdestowa", "ref": "17515"}}, {"type": "node", "id": 1346185065, "lat": 51.1112271, "lon": 16.8879603, "tags": {"bus": "yes", "name": "Rdestowa", "public_transport": "stop_position", "ref": "17513"}}, {"type": "node", "id": 1362765306, "lat": 51.1646333, "lon": 17.0277647, "tags": {"bus": "yes", "name": "Rondo Obro\u0144c\u00f3w Grodna", "old_name": "ROD Pod Morwami", "public_transport": "stop_position", "ref": "23528"}}, {"type": "node", "id": 1366883829, "lat": 51.1452823, "lon": 16.9466204, "tags": {"bus": "yes", "name": "Kr\u00f3lewiecka", "public_transport": "stop_position", "ref": "18532"}}, {"type": "node", "id": 1369428359, "lat": 51.1022934, "lon": 17.0255532}, {"type": "node", "id": 1421388851, "lat": 51.1460941, "lon": 16.9445649, "tags": {"bus": "yes", "name": "Kr\u00f3lewiecka", "public_transport": "stop_position", "ref": "18531"}}, {"type": "node", "id": 1561604304, "lat": 51.1197922, "lon": 17.0566623, "tags": {"bus": "yes", "name": "Prusa", "public_transport": "stop_position", "ref": "120851"}}, {"type": "node", "id": 1601704681, "lat": 51.0971522, "lon": 17.05548, "tags": {"bus": "yes", "name": "Na Niskich \u0141\u0105kach", "public_transport": "stop_position", "ref": "20215"}}, {"type": "node", "id": 1643378061, "lat": 51.1603674, "lon": 17.0275049, "tags": {"bus": "yes", "name": "Lekarska", "public_transport": "stop_position", "ref": "23526"}}, {"type": "node", "id": 1657624076, "lat": 51.1185583, "lon": 16.9547928, "tags": {"bus": "yes", "name": "Nowy Dw\u00f3r (Rogowska)", "public_transport": "stop_position", "ref": "12125"}}, {"type": "node", "id": 1657624128, "lat": 51.1193881, "lon": 16.9515114, "tags": {"bus": "yes", "name": "Nowy Dw\u00f3r (p\u0119tla)", "public_transport": "stop_position", "ref": "12138"}}, {"type": "node", "id": 1657624140, "lat": 51.11642, "lon": 16.9466278, "tags": {"bus": "yes", "name": "Zemska", "public_transport": "stop_position", "ref": "12133"}}, {"type": "node", "id": 1657624158, "lat": 51.1158266, "lon": 16.9584473, "tags": {"bus": "yes", "name": "Chociebuska", "public_transport": "stop_position", "ref": "12123"}}, {"type": "node", "id": 1664860048, "lat": 51.1109644, "lon": 16.8980628, "tags": {"bus": "yes", "name": "Graniczna (Strachowicka)", "public_transport": "stop_position", "ref": "17517"}}, {"type": "node", "id": 1668367953, "lat": 51.0931935, "lon": 17.0301228, "tags": {"bus": "yes", "name": "Sanocka", "public_transport": "stop_position", "ref": "11369"}}, {"type": "node", "id": 1696551084, "lat": 51.1018518, "lon": 16.9440948, "tags": {"bus": "yes", "name": "Muchob\u00f3r Wielki (Ro\u015blinna)", "public_transport": "stop_position", "ref": "17300"}}, {"type": "node", "id": 1701710273, "lat": 51.120845, "lon": 16.8695353, "tags": {"bus": "yes", "highway": "bus_stop", "name": "Adamczewskich", "network": "Wroc\u0142aw", "operator": "ZDiUM Wroc\u0142aw", "public_transport": "platform", "ref": "17716", "source": "WroclawGIS"}}, {"type": "node", "id": 1701710277, "lat": 51.1209506, "lon": 16.8695655, "tags": {"bus": "yes", "highway": "bus_stop", "name": "Adamczewskich", "network": "Wroc\u0142aw", "operator": "ZDiUM Wroc\u0142aw", "public_transport": "platform", "ref": "17715", "source": "WroclawGIS"}}, {"type": "node", "id": 1701710279, "lat": 51.0732879, "lon": 16.9636586, "tags": {"bench": "yes", "bus": "yes", "highway": "bus_stop", "name": "Adamieckiego", "network": "Wroc\u0142aw", "operator": "ZDiUM Wroc\u0142aw", "public_transport": "platform", "ref": "17113", "shelter": "no", "source": "WroclawGIS"}}, {"type": "node", "id": 1701710285, "lat": 51.0742614, "lon": 16.9630038, "tags": {"bench": "yes", "bus": "yes", "highway": "bus_stop", "name": "Adamieckiego", "network": "Wroc\u0142aw", "operator": "ZDiUM Wroc\u0142aw", "public_transport": "platform", "ref": "17114", "shelter": "yes", "source": "WroclawGIS", "tactile_paving": "no"}}, {"type": "node", "id": 1701710286, "lat": 51.0747305, "lon": 17.0325536, "tags": {"bus": "yes", "highway": "bus_stop", "name": "Borowska (Szpital)", "network": "Wroc\u0142aw", "operator": "ZDiUM Wroc\u0142aw", "public_transport": "platform", "ref": "21109"}}, {"type": "node", "id": 1701710287, "lat": 51.0752511, "lon": 17.0330608, "tags": {"bus": "yes", "highway": "bus_stop", "name": "Borowska (Szpital)", "network": "Wroc\u0142aw", "operator": "ZDiUM Wroc\u0142aw", "public_transport": "platform", "ref": "21110"}}, {"type": "node", "id": 1701710289, "lat": 51.0912863, "lon": 16.9865615, "tags": {"bus": "yes", "highway": "bus_stop", "name": "Aleja Pracy", "network": "Wroc\u0142aw", "operator": "ZDiUM Wroc\u0142aw", "public_transport": "platform", "ref": "11727"}}, {"type": "node", "id": 1701710292, "lat": 51.0918654, "lon": 16.9853801, "tags": {"bench": "yes", "bin": "yes", "bus": "yes", "highway": "bus_stop", "lit": "yes", "name": "Aleja Pracy", "network": "Wroc\u0142aw", "operator": "ZDiUM Wroc\u0142aw", "public_transport": "platform", "ref": "11723", "shelter": "yes", "tactile_paving": "no"}}, {"type": "node", "id": 1701710293, "lat": 51.0922601, "lon": 16.9864263, "tags": {"bench": "yes", "bin": "yes", "bus": "yes", "highway": "bus_stop", "name": "Aleja Pracy", "network": "Wroc\u0142aw", "operator": "ZDiUM Wroc\u0142aw", "public_transport": "platform", "ref": "11724", "shelter": "yes", "tactile_paving": "no"}}, {"type": "node", "id": 1701710294, "lat": 51.0879887, "lon": 16.9918872, "tags": {"bus": "yes", "highway": "bus_stop", "name": "Aleja W\u0119drowc\u00f3w", "network": "Wroc\u0142aw", "operator": "ZDiUM Wroc\u0142aw", "public_transport": "platform", "ref": "11741"}}, {"type": "node", "id": 1701710295, "lat": 51.0886682, "lon": 16.9923073, "tags": {"bus": "yes", "highway": "bus_stop", "name": "Aleja W\u0119drowc\u00f3w", "network": "Wroc\u0142aw", "operator": "ZDiUM Wroc\u0142aw", "public_transport": "platform", "ref": "11742"}}, {"type": "node", "id": 1701710296, "lat": 51.0511106, "lon": 17.0922887, "tags": {"bus": "yes", "highway": "bus_stop", "name": "Arabska", "network": "Wroc\u0142aw", "operator": "ZDiUM Wroc\u0142aw", "public_transport": "platform", "ref": "25311", "source": "WroclawGIS"}}, {"type": "node", "id": 1701710297, "lat": 51.0511186, "lon": 17.0924331, "tags": {"bus": "yes", "highway": "bus_stop", "name": "Arabska", "network": "Wroc\u0142aw", "operator": "ZDiUM Wroc\u0142aw", "public_transport": "platform", "ref": "25312", "source": "WroclawGIS"}}, {"type": "node", "id": 1701710298, "lat": 51.0950308, "lon": 17.02727, "tags": {"bench": "no", "bus": "yes", "highway": "bus_stop", "name": "Arena", "network": "Wroc\u0142aw", "operator": "ZDiUM Wroc\u0142aw", "public_transport": "platform", "ref": "11330", "shelter": "no", "tactile_paving": "no"}}, {"type": "node", "id": 1701710314, "lat": 51.1018966, "lon": 17.0297717, "tags": {"bench": "yes", "bin": "yes", "bus": "yes", "departures_board": "realtime", "highway": "bus_stop", "name": "Arkady (Capitol)", "network": "Wroc\u0142aw", "operator": "ZDiUM Wroc\u0142aw", "public_transport": "platform", "ref": "10366", "shelter": "no", "tactile_paving": "no"}}, {"type": "node", "id": 1701710326, "lat": 51.1019644, "lon": 17.0294025, "tags": {"bench": "yes", "bin": "yes", "bus": "yes", "departures_board": "realtime", "highway": "bus_stop", "name": "Arkady (Capitol)", "network": "Wroc\u0142aw", "operator": "ZDiUM Wroc\u0142aw", "public_transport": "platform", "ref": "10365", "shelter": "no", "tactile_paving": "no"}}, {"type": "node", "id": 1701710333, "lat": 51.0878161, "lon": 17.0683328, "tags": {"bench": "no", "bin": "yes", "bus": "yes", "highway": "bus_stop", "lit": "no", "name": "Armii Krajowej", "network": "Wroc\u0142aw", "operator": "ZDiUM Wroc\u0142aw", "public_transport": "platform", "ref": "25110", "shelter": "no", "tactile_paving": "no"}}, {"type": "node", "id": 1701710382, "lat": 51.1639772, "lon": 17.111943, "tags": {"bus": "yes", "highway": "bus_stop", "name": "Azaliowa", "network": "Wroc\u0142aw", "operator": "ZDiUM Wroc\u0142aw", "public_transport": "platform", "ref": "29533", "source": "WroclawGIS"}}, {"type": "node", "id": 1701710386, "lat": 51.1641748, "lon": 17.1119582, "tags": {"bus": "yes", "highway": "bus_stop", "name": "Azaliowa", "network": "Wroc\u0142aw", "operator": "ZDiUM Wroc\u0142aw", "public_transport": "platform", "ref": "29534", "source": "WroclawGIS"}}, {"type": "node", "id": 1701710393, "lat": 51.1267842, "lon": 16.9630089, "tags": {"bus": "yes", "highway": "bus_stop", "name": "Bulwar Dedala", "network": "Wroc\u0142aw", "old_name": "Bajana (p\u0119tla)", "operator": "ZDiUM Wroc\u0142aw", "public_transport": "platform", "ref": "12539", "source": "WroclawGIS"}}, {"type": "node", "id": 1701710410, "lat": 51.1273411, "lon": 16.9639282, "tags": {"bus": "yes", "highway": "bus_stop", "name": "Bulwar Dedala", "network": "Wroc\u0142aw", "old_name": "Bajana (p\u0119tla)", "operator": "ZDiUM Wroc\u0142aw", "public_transport": "platform", "ref": "12538", "source": "WroclawGIS"}}, {"type": "node", "id": 1701710419, "lat": 51.0723293, "lon": 17.0529011, "tags": {"bench": "yes", "bin": "yes", "bus": "yes", "highway": "bus_stop", "name": "Bardzka (Cmentarz)", "network": "Wroc\u0142aw", "operator": "ZDiUM Wroc\u0142aw", "public_transport": "platform", "ref": "21135", "shelter": "yes"}}, {"type": "node", "id": 1701710431, "lat": 51.0732399, "lon": 17.0533086, "tags": {"bench": "yes", "bin": "yes", "bus": "yes", "highway": "bus_stop", "name": "Bardzka (Cmentarz)", "network": "Wroc\u0142aw", "operator": "ZDiUM Wroc\u0142aw", "public_transport": "platform", "ref": "21136", "shelter": "yes"}}, {"type": "node", "id": 1701710445, "lat": 51.0827765, "lon": 17.0508253, "tags": {"bench": "yes", "bin": "yes", "bus": "yes", "highway": "bus_stop", "lit": "no", "name": "Bardzka", "network": "Wroc\u0142aw", "operator": "ZDiUM Wroc\u0142aw", "public_transport": "platform", "ref": "21145", "shelter": "yes", "source:location": "UM Wroc\u0142aw", "tactile_paving": "yes"}}, {"type": "node", "id": 1701710450, "lat": 51.0834762, "lon": 17.0493022, "tags": {"bench": "yes", "bin": "yes", "bus": "yes", "description": "przystanek podw\u00f3jny; autobusy 110,125,134,325,245", "highway": "bus_stop", "lit": "yes", "name": "Bardzka", "network": "Wroc\u0142aw", "operator": "ZDiUM Wroc\u0142aw", "public_transport": "platform", "ref": "21014", "shelter": "yes", "source:location": "UM Wroc\u0142aw", "tactile_paving": "yes", "tram": "yes"}}, {"type": "node", "id": 1701710455, "lat": 51.1025531, "lon": 17.1160707, "tags": {"bench": "yes", "bin": "yes", "bus": "yes", "description": "P\u0119tla autobusowa Bartoszowice", "highway": "bus_stop", "lit": "no", "name": "Bartoszowice", "network": "Wroc\u0142aw", "operator": "ZDiUM Wroc\u0142aw", "public_transport": "platform", "ref": "24509", "shelter": "yes", "source": "WroclawGIS", "tactile_paving": "yes"}}, {"type": "node", "id": 1701710458, "lat": 51.0477794, "lon": 17.0911543, "tags": {"bus": "yes", "highway": "bus_stop", "name": "Bie\u0144kowice", "network": "Wroc\u0142aw", "operator": "ZDiUM Wroc\u0142aw", "public_transport": "platform", "ref": "25313", "source": "WroclawGIS"}}, {"type": "node", "id": 1701710459, "lat": 51.1009732, "lon": 17.1088227, "tags": {"bus": "yes", "highway": "bus_stop", "name": "Biskupin", "network": "Wroc\u0142aw", "operator": "ZDiUM Wroc\u0142aw", "public_transport": "platform", "ref": "24507", "source": "WroclawGIS", "source:location": "UM Wroc\u0142aw"}}, {"type": "node", "id": 1701710460, "lat": 51.101116, "lon": 17.1086469, "tags": {"bench": "yes", "bus": "yes", "highway": "bus_stop", "name": "Biskupin", "network": "Wroc\u0142aw", "operator": "ZDiUM Wroc\u0142aw", "public_transport": "platform", "ref": "24508"}}, {"type": "node", "id": 1701710466, "lat": 51.0820961, "lon": 16.9895891, "tags": {"bench": "yes", "bus": "yes", "highway": "bus_stop", "name": "Blacharska", "network": "Wroc\u0142aw", "operator": "ZDiUM Wroc\u0142aw", "public_transport": "platform", "ref": "11747", "shelter": "yes"}}, {"type": "node", "id": 1701710477, "lat": 51.063611, "lon": 17.0837452, "tags": {"bench": "yes", "bin": "yes", "bus": "yes", "highway": "bus_stop", "name": "Broch\u00f3w (Stacja kolejowa)", "network": "Wroc\u0142aw", "operator": "ZDiUM Wroc\u0142aw", "public_transport": "platform", "ref": "25306", "shelter": "yes", "source": "WroclawGIS", "tactile_paving": "no"}}, {"type": "node", "id": 1701710484, "lat": 51.063753, "lon": 17.0825008, "tags": {"bench": "yes", "bus": "yes", "highway": "bus_stop", "name": "Broch\u00f3w (Stacja kolejowa)", "network": "Wroc\u0142aw", "operator": "ZDiUM Wroc\u0142aw", "public_transport": "platform", "ref": "25305", "shelter": "no", "source": "WroclawGIS", "tactile_paving": "no"}}, {"type": "node", "id": 1701710494, "lat": 51.0590347, "lon": 17.0863451, "tags": {"bus": "yes", "highway": "bus_stop", "name": "Broch\u00f3w", "network": "Wroc\u0142aw", "operator": "ZDiUM Wroc\u0142aw", "public_transport": "platform", "ref": "25309", "source": "WroclawGIS"}}, {"type": "node", "id": 1701710500, "lat": 51.0589093, "lon": 17.08732, "tags": {"bench": "yes", "bin": "yes", "bus": "yes", "description": "2019-10: autobusy 114 i 245; 125 i 325 - tylko 1 lub 2 kursy dziennie", "highway": "bus_stop", "name": "Broch\u00f3w", "network": "Wroc\u0142aw", "operator": "ZDiUM Wroc\u0142aw", "public_transport": "platform", "ref": "25310", "shelter": "yes"}}, {"type": "node", "id": 1701710517, "lat": 51.1054212, "lon": 17.1117708, "tags": {"bench": "yes", "bin": "yes", "bus": "yes", "departures_board": "timetable", "highway": "bus_stop", "lit": "yes", "name": "Bacciarellego", "network": "Wroc\u0142aw", "operator": "ZDiUM Wroc\u0142aw", "public_transport": "platform", "ref": "24518", "shelter": "yes", "source": "WroclawGIS", "tactile_paving": "no"}}, {"type": "node", "id": 1701710519, "lat": 51.1056437, "lon": 17.110487, "tags": {"bench": "no", "bin": "yes", "bus": "yes", "highway": "bus_stop", "name": "Bacciarellego", "network": "Wroc\u0142aw", "operator": "ZDiUM Wroc\u0142aw", "public_transport": "platform", "ref": "24517", "shelter": "no", "source": "WroclawGIS", "tactile_paving": "no"}}, {"type": "node", "id": 1701710522, "lat": 51.1522105, "lon": 17.0700665, "tags": {"bench": "yes", "bin": "yes", "bus": "yes", "highway": "bus_stop", "name": "Bagatela", "network": "Wroc\u0142aw", "operator": "ZDiUM Wroc\u0142aw", "public_transport": "platform", "ref": "23724", "shelter": "yes", "tactile_paving": "no"}}, {"type": "node", "id": 1701710533, "lat": 51.1527665, "lon": 17.0693936, "tags": {"bench": "no", "bin": "yes", "bus": "yes", "highway": "bus_stop", "name": "Bagatela", "network": "Wroc\u0142aw", "operator": "ZDiUM Wroc\u0142aw", "public_transport": "platform", "ref": "23723", "shelter": "no", "source": "WroclawGIS", "tactile_paving": "no"}}, {"type": "node", "id": 1701710539, "lat": 51.1304876, "lon": 16.9669648, "tags": {"bench": "no", "bin": "yes", "bus": "yes", "highway": "bus_stop", "name": "Bajana", "network": "Wroc\u0142aw", "operator": "ZDiUM Wroc\u0142aw", "public_transport": "platform", "ref": "12508", "shelter": "no", "source": "WroclawGIS"}}, {"type": "node", "id": 1701710555, "lat": 51.1312, "lon": 16.9657492, "tags": {"bus": "yes", "highway": "bus_stop", "name": "Bajana", "network": "Wroc\u0142aw", "operator": "ZDiUM Wroc\u0142aw", "public_transport": "platform", "ref": "12507", "source": "WroclawGIS"}}, {"type": "node", "id": 1701710556, "lat": 51.1366389, "lon": 17.0306304, "tags": {"bus": "yes", "highway": "bus_stop", "name": "Ba\u0142tycka", "network": "Wroc\u0142aw", "operator": "ZDiUM Wroc\u0142aw", "public_transport": "platform", "ref": "23144"}}, {"type": "node", "id": 1701710558, "lat": 51.1371851, "lon": 17.0294612, "tags": {"bus": "yes", "highway": "bus_stop", "name": "Ba\u0142tycka", "network": "Wroc\u0142aw", "operator": "ZDiUM Wroc\u0142aw", "public_transport": "platform", "ref": "23172", "source": "WroclawGIS"}}, {"type": "node", "id": 1701710561, "lat": 51.1375907, "lon": 17.0306136, "tags": {"bus": "yes", "highway": "bus_stop", "name": "Ba\u0142tycka", "network": "Wroc\u0142aw", "operator": "ZDiUM Wroc\u0142aw", "public_transport": "platform", "ref": "23147"}}, {"type": "node", "id": 1701710563, "lat": 51.1382031, "lon": 17.0294131, "tags": {"bench": "yes", "bin": "yes", "bus": "yes", "highway": "bus_stop", "lit": "yes", "name": "Ba\u0142tycka", "network": "Wroc\u0142aw", "operator": "ZDiUM Wroc\u0142aw", "public_transport": "platform", "ref": "23143", "shelter": "yes", "source": "WroclawGIS", "tactile_paving": "yes"}}, {"type": "node", "id": 1701710565, "lat": 51.1349756, "lon": 17.0577777, "tags": {"bus": "yes", "highway": "bus_stop", "name": "Berenta", "network": "Wroc\u0142aw", "operator": "ZDiUM Wroc\u0142aw", "public_transport": "platform", "ref": "23701", "source": "WroclawGIS"}}, {"type": "node", "id": 1701710566, "lat": 51.1355075, "lon": 17.0564729, "tags": {"bus": "yes", "highway": "bus_stop", "name": "Berenta", "network": "Wroc\u0142aw", "operator": "ZDiUM Wroc\u0142aw", "public_transport": "platform", "ref": "23702", "source": "WroclawGIS"}}, {"type": "node", "id": 1701710567, "lat": 51.1355106, "lon": 17.0575789, "tags": {"bench": "yes", "bus": "yes", "highway": "bus_stop", "name": "Berenta", "network": "Wroc\u0142aw", "operator": "ZDiUM Wroc\u0142aw", "public_transport": "platform", "ref": "23731", "shelter": "yes", "source": "WroclawGIS", "tactile_paving": "yes"}}, {"type": "node", "id": 1701710568, "lat": 51.1357959, "lon": 17.057602, "tags": {"bus": "yes", "highway": "bus_stop", "name": "Berenta", "network": "Wroc\u0142aw", "operator": "ZDiUM Wroc\u0142aw", "public_transport": "platform", "ref": "23732", "shelter": "yes", "source": "WroclawGIS"}}, {"type": "node", "id": 1701710569, "lat": 51.1412449, "lon": 17.0250804, "tags": {"bench": "yes", "bin": "yes", "bus": "yes", "highway": "bus_stop", "name": "Bezpieczna", "network": "Wroc\u0142aw", "operator": "ZDiUM Wroc\u0142aw", "public_transport": "platform", "ref": "23116", "shelter": "yes", "source": "WroclawGIS", "tactile_paving": "no"}}, {"type": "node", "id": 1701710571, "lat": 51.141433, "lon": 17.0263255, "tags": {"bench": "yes", "bin": "yes", "bus": "yes", "highway": "bus_stop", "name": "Bezpieczna", "network": "Wroc\u0142aw", "operator": "ZDiUM Wroc\u0142aw", "public_transport": "platform", "ref": "23146", "shelter": "yes", "source": "WroclawGIS", "tactile_paving": "yes"}}, {"type": "node", "id": 1701710572, "lat": 51.1428903, "lon": 17.0253116, "tags": {"bench": "yes", "bin": "yes", "bus": "yes", "highway": "bus_stop", "name": "Bezpieczna", "network": "Wroc\u0142aw", "operator": "ZDiUM Wroc\u0142aw", "public_transport": "platform", "ref": "23145", "shelter": "yes", "source": "WroclawGIS", "tactile_paving": "no"}}, {"type": "node", "id": 1701710573, "lat": 51.1568091, "lon": 17.1009257, "tags": {"bus": "yes", "highway": "bus_stop", "name": "Bia\u0142ych Go\u017adzik\u00f3w", "network": "Wroc\u0142aw", "operator": "ZDiUM Wroc\u0142aw", "public_transport": "platform", "ref": "29518", "source": "WroclawGIS"}}, {"type": "node", "id": 1701710574, "lat": 51.1569299, "lon": 17.0993349, "tags": {"bus": "yes", "highway": "bus_stop", "name": "Bia\u0142ych Go\u017adzik\u00f3w", "network": "Wroc\u0142aw", "operator": "ZDiUM Wroc\u0142aw", "public_transport": "platform", "ref": "29519", "source": "WroclawGIS"}}, {"type": "node", "id": 1701710591, "lat": 51.091727, "lon": 17.0925437, "tags": {"bus": "yes", "highway": "bus_stop", "name": "Bierdzany", "network": "Wroc\u0142aw", "note:location": "ZDIUM ma nieprawid\u0142ow\u0105 lokalizacj\u0119 przystanku", "operator": "ZDiUM Wroc\u0142aw", "public_transport": "platform", "ref": "25505", "source": "WroclawGIS"}}, {"type": "node", "id": 1701710595, "lat": 51.0921262, "lon": 17.0912927, "tags": {"bus": "yes", "highway": "bus_stop", "name": "Bierdzany", "network": "Wroc\u0142aw", "operator": "ZDiUM Wroc\u0142aw", "public_transport": "platform", "ref": "25506", "source": "WroclawGIS"}}, {"type": "node", "id": 1701710605, "lat": 51.1582454, "lon": 17.1465846, "tags": {"bus": "yes", "highway": "bus_stop", "name": "Bierutowska (Wiadukt)", "network": "Wroc\u0142aw", "operator": "ZDiUM Wroc\u0142aw", "public_transport": "platform", "ref": "29112", "shelter": "yes", "source": "WroclawGIS"}}, {"type": "node", "id": 1701710611, "lat": 51.1584367, "lon": 17.1477205, "tags": {"bus": "yes", "highway": "bus_stop", "name": "Bierutowska (Wiadukt)", "network": "Wroc\u0142aw", "operator": "ZDiUM Wroc\u0142aw", "public_transport": "platform", "ref": "29111", "source": "WroclawGIS"}}, {"type": "node", "id": 1701710615, "lat": 51.155762, "lon": 17.139987, "tags": {"bus": "yes", "highway": "bus_stop", "name": "Bierutowska 75", "network": "Wroc\u0142aw", "operator": "ZDiUM Wroc\u0142aw", "public_transport": "platform", "ref": "29118", "source": "WroclawGIS"}}, {"type": "node", "id": 1701710626, "lat": 51.1559686, "lon": 17.1406843, "tags": {"bus": "yes", "highway": "bus_stop", "name": "Bierutowska 75", "network": "Wroc\u0142aw", "operator": "ZDiUM Wroc\u0142aw", "public_transport": "platform", "ref": "29117", "source": "WroclawGIS"}}, {"type": "node", "id": 1701710627, "lat": 51.1537912, "lon": 17.1363643, "tags": {"bus": "yes", "highway": "bus_stop", "name": "Bierutowska", "network": "Wroc\u0142aw", "operator": "ZDiUM Wroc\u0142aw", "public_transport": "platform", "ref": "29109", "source": "WroclawGIS"}}, {"type": "node", "id": 1701710633, "lat": 51.1541535, "lon": 17.136764, "tags": {"bus": "yes", "highway": "bus_stop", "name": "Bierutowska", "network": "Wroc\u0142aw", "operator": "ZDiUM Wroc\u0142aw", "public_transport": "platform", "ref": "29110", "source": "WroclawGIS"}}, {"type": "node", "id": 1701710670, "lat": 51.0758365, "lon": 17.0929603, "tags": {"bus": "yes", "highway": "bus_stop", "name": "Blizanowicka", "network": "Wroc\u0142aw", "operator": "ZDiUM Wroc\u0142aw", "public_transport": "platform", "ref": "25145", "source": "WroclawGIS"}}, {"type": "node", "id": 1701710671, "lat": 51.0760666, "lon": 17.0924269, "tags": {"bus": "yes", "highway": "bus_stop", "name": "Blizanowicka", "network": "Wroc\u0142aw", "operator": "ZDiUM Wroc\u0142aw", "public_transport": "platform", "ref": "25146", "source": "WroclawGIS"}}, {"type": "node", "id": 1701710672, "lat": 51.1296981, "lon": 17.0981991, "tags": {"bus": "yes", "highway": "bus_stop", "name": "Bociania", "network": "Wroc\u0142aw", "operator": "ZDiUM Wroc\u0142aw", "public_transport": "platform", "ref": "24118", "source": "WroclawGIS"}}, {"type": "node", "id": 1701710675, "lat": 51.1299998, "lon": 17.0967863, "tags": {"bus": "yes", "highway": "bus_stop", "name": "Bociania", "network": "Wroc\u0142aw", "operator": "ZDiUM Wroc\u0142aw", "public_transport": "platform", "ref": "24117", "source": "WroclawGIS"}}, {"type": "node", "id": 1701710676, "lat": 51.1653323, "lon": 16.8819192, "tags": {"bus": "yes", "highway": "bus_stop", "name": "Bojanowska", "network": "Wroc\u0142aw", "operator": "ZDiUM Wroc\u0142aw", "public_transport": "platform", "ref": "18733", "source": "WroclawGIS"}}, {"type": "node", "id": 1701710677, "lat": 51.1651452, "lon": 16.88138, "tags": {"bus": "yes", "highway": "bus_stop", "name": "Bojanowska", "network": "Wroc\u0142aw", "operator": "ZDiUM Wroc\u0142aw", "public_transport": "platform", "ref": "18734", "source": "WroclawGIS"}}, {"type": "node", "id": 1701710686, "lat": 51.0880601, "lon": 17.0364747, "tags": {"bus": "yes", "highway": "bus_stop", "name": "Borowska", "network": "Wroc\u0142aw", "operator": "ZDiUM Wroc\u0142aw", "public_transport": "platform", "ref": "21142", "shelter": "yes"}}, {"type": "node", "id": 1701710687, "lat": 51.0892995, "lon": 17.0341529, "tags": {"bench": "yes", "bin": "yes", "bus": "yes", "highway": "bus_stop", "name": "Borowska", "network": "Wroc\u0142aw", "operator": "ZDiUM Wroc\u0142aw", "public_transport": "platform", "ref": "21104", "shelter": "yes", "tactile_paving": "no"}}, {"type": "node", "id": 1701710688, "lat": 51.0893144, "lon": 17.0339011, "tags": {"bench": "yes", "bin": "yes", "bus": "yes", "highway": "bus_stop", "name": "Borowska", "network": "Wroc\u0142aw", "operator": "ZDiUM Wroc\u0142aw", "public_transport": "platform", "ref": "21103", "shelter": "yes", "tactile_paving": "no"}}, {"type": "node", "id": 1701710690, "lat": 51.0673476, "lon": 16.9979598, "tags": {"bus": "yes", "highway": "bus_stop", "name": "Braterska", "network": "Wroc\u0142aw", "operator": "ZDiUM Wroc\u0142aw", "public_transport": "platform", "ref": "16406", "shelter": "yes", "tactile_paving": "no", "tram": "yes", "wheelchair": "limited"}}, {"type": "node", "id": 1701710692, "lat": 51.0677737, "lon": 17.0943749, "tags": {"bus": "yes", "highway": "bus_stop", "name": "Brochowska", "network": "Siechnicka Komunikacja Publiczna", "operator": "ZDiUM Wroc\u0142aw", "public_transport": "platform", "ref": "25117"}}, {"type": "node", "id": 1701710693, "lat": 51.0681109, "lon": 17.0942101, "tags": {"bus": "yes", "highway": "bus_stop", "name": "Brochowska", "network": "Siechnicka Komunikacja Publiczna", "operator": "ZDiUM Wroc\u0142aw", "public_transport": "platform", "ref": "25118"}}, {"type": "node", "id": 1701710694, "lat": 51.0690171, "lon": 17.0948156, "tags": {"bus": "yes", "highway": "bus_stop", "name": "Brochowska", "network": "Wroc\u0142aw", "operator": "ZDiUM Wroc\u0142aw", "public_transport": "platform", "ref": "25132"}}, {"type": "node", "id": 1701710695, "lat": 51.0698201, "lon": 17.0975758, "tags": {"bus": "yes", "highway": "bus_stop", "name": "Ksi\u0119\u017ce Wielkie", "network": "Wroc\u0142aw", "operator": "ZDiUM Wroc\u0142aw", "public_transport": "platform", "ref": "25134", "source": "WroclawGIS"}}, {"type": "node", "id": 1701710696, "lat": 51.0691094, "lon": 17.0929492, "tags": {"bus": "yes", "highway": "bus_stop", "name": "Brochowska", "network": "Wroc\u0142aw", "operator": "ZDiUM Wroc\u0142aw", "public_transport": "platform", "ref": "25131"}},